stop_id,stop_code,stop_name,stop_desc,stop_lat,stop_lon,zone_id,stop_url,location_type,parent_station,wheelchair_boarding,stop_direction
1,,Marine Dr NE & 27th Ave NE,,48.05585865712008,-122.1953382776307,,,0,,0,
10,,Ellison James Dr & Steve Williams Dr,,48.069307182744865,-122.27636413622787,,,0,,0,
1000,,Hwy 99 & 148th St SW,,47.86476388955826,-122.28118046027281,,,0,,0,
1001,,Hwy 99 & 156th St SW,,47.8578519019059,-122.28762808138484,,,0,,0,
1002,,Hwy 99 & 44th Ave W,,47.85123479371151,-122.29264024010365,,,0,,0,
1003,,Hwy 99 & 168th St SW,,47.84702962212772,-122.29428143533791,,,0,,0,
1004,,Hwy 99 & 174th Pl SW,,47.84135454632635,-122.29743669895923,,,0,,0,
1005,,Hwy 99 & 176th St SW,,47.840079149668796,-122.29853695547523,,,0,,0,
1006,,Hwy 99 & 188th St SW,,47.828746680833795,-122.30833920281133,,,0,,0,
1007,,Hwy 99 & 196th St SW,,47.821667158141516,-122.3144686255669,,,0,,0,
1008,,Hwy 99 & 200th St SW,,47.81813963262162,-122.31753102750031,,,0,,0,
1009,,Hwy 99 & 204th St SW,,47.81428541315603,-122.32082788634928,,,0,,0,
1010,,Hwy 99 & 208th St SW,,47.81071853172612,-122.3235300898096,,,0,,0,
1011,,Hwy 99 & 212th St SW,,47.80710073044402,-122.32613684208972,,,0,,0,
1012,,Hwy 99 & 216th St SW,,47.80410027761246,-122.32828892396843,,,0,,0,
1013,,Hwy 99 & 220th St SW,,47.79994566095162,-122.3312579856296,,,0,,0,
1014,,Hwy 99 & 230th St SW,,47.79082946922982,-122.33786300477834,,,0,,0,
1015,,Hwy 99 & 234th St SW,,47.78810551544477,-122.33982240556288,,,0,,0,
1016,,Hwy 99 & 238th St SW,,47.78393920002941,-122.34282184332726,,,0,,0,
1017,,Hwy 99 & Edmonds Wy,,47.77918048552523,-122.34603133593814,,,0,,0,
1018,,Hwy 99 & 52nd Ave W,,47.83460571745533,-122.30327304447113,,,0,,0,
1020,,Hwy 99 & Lincoln Wy,,47.87369246082745,-122.27285961558712,,,0,,0,
1021,,Hwy 99 & N Manor Wy,,47.88013745484489,-122.26684756830919,,,0,,0,
1022,,Hwy 99 & 76th Ave W,,47.7952171204454,-122.33470234318092,,,0,,0,
1023,,Hwy 99 & 240th St SW,,47.78124084621269,-122.34491165425406,,,0,,0,
1024,,Hwy 99 & Gibson Rd,,47.882845291721274,-122.26431385694765,,,0,,0,
1026,,State Ave & 5th St,,48.05296017444242,-122.17676102859159,,,0,,0,
1027,,State Ave & 7th St,,48.054726025414034,-122.17674975871041,,,0,,0,
1028,,State Ave & 76th St NE,,48.06517594581454,-122.17667016132633,,,0,,0,
1029,,State Ave & 80th St NE,,48.068685186437214,-122.17669202210449,,,0,,0,
1030,,State Ave & 84th St NE,,48.0723089913242,-122.17629549844729,,,0,,0,
1031,,State Ave & 88th St NE,,48.075986927125896,-122.17572440346466,,,0,,0,
1032,,State Ave & 92nd St NE,,48.07948954607007,-122.17466995294343,,,0,,0,
1033,,State Ave & Grove St,,48.061554228128394,-122.17665355468885,,,0,,0,
1035,,State Ave & 10th St,,48.05787115447351,-122.17672532926677,,,0,,0,
1037,,S Stillaguamish Ave & Tveit Rd,,48.188756055558535,-122.11754856719759,,,0,,0,
1039,,Village Green Dr & 21st Dr SE,,47.86617253301483,-122.20426382754405,,,0,,0,
1040,,Village Green Dr & Trillium Blvd SE,,47.8672386820953,-122.20772712461508,,,0,,0,
1041,,Village Green Dr & Mill Creek Rd,,47.85254279121235,-122.20835963308346,,,0,,0,
1042,,Village Green Dr & 152nd Pl SE,,47.860371751742065,-122.19522835487581,,,0,,0,
1043,,Village Green Dr & Heatherstone Ln N,,47.85584476468496,-122.19891841395874,,,0,,0,
1044,,Village Green Dr & Cottonwood Ln,,47.86376442867349,-122.19468603348777,,,0,,0,
1045,,Village Green Dr & Huckleberry Dr SE,,47.86497537466692,-122.19614806440246,,,0,,0,
1046,,Village Green Dr & Country Club Dr,,47.855556032450636,-122.2054005096001,,,0,,0,
1049,,N West Ave & W 5th Ave,,48.19746670158543,-122.12804694049666,,,0,,0,
1053,,10th St & Orchard Ave,,47.85309061292172,-121.69199011043251,,,0,,0,
1054,,100th Ave W & 232nd St SW,,47.78836155990266,-122.36693187568729,,,0,,0,
1056,,100th Ave W & Edmonds Wy,,47.790031327356104,-122.36694057079399,,,0,,0,
1058,,100th Ave W & 238th St SW,,47.783370996054416,-122.36673547568056,,,0,,0,
1061,,104th Ave NE & NE 201st Pl,,47.773962410243875,-122.20176980605171,,,0,,0,
1065,,104th Ave NE & NE 196th St,,47.76989902522357,-122.2017602285558,,,0,,0,
1070,,179th Ave SE & Stanton St SE,,47.86017803669197,-121.99081463218299,,,0,,0,
1071,,179th Ave SE & 154th St SE,,47.85763139460759,-121.99076993620794,,,0,,0,
1072,,179th Ave SE & 157th Pl SE,,47.85425107413237,-121.99074327699317,,,0,,0,
1073,,179th Ave SE & 147th St SE,,47.864277275523946,-121.9907840303664,,,0,,0,
1074,,19th Ave SE & 228th St SE,,47.79099051083058,-122.20831427507547,,,0,,0,
1079,,2nd Ave & Stewart St,,47.610745058532736,-122.34039260209117,,,0,,0,
1084,,20th Ave SE & 222nd St SE,,47.79688457930123,-122.20497913455965,,,0,,0,
1085,,23rd Ave SE & 168th St SE,,47.845402421096,-122.20200342364222,,,0,,0,
1086,,23rd Ave SE & 241st St SE,,47.779005280709214,-122.20195573951813,,,0,,0,
1087,,23rd Ave SE & 171st Pl SE,,47.842661060167536,-122.20195950411237,,,0,,0,
1088,,23rd Ave SE & 236th St SE,,47.783386048421654,-122.20225034895937,,,0,,0,
1090,,24th Ave W & 196th St SW,,47.8205267602508,-122.26585005062174,,,0,,0,
1092,,28th Ave W & 200th St SW,,47.81648165250568,-122.27114844968358,,,0,,0,
1093,,3rd Ave N & Edmonds St,,47.81325517924362,-122.3782035163388,,,0,,0,
1094,,3rd Ave S & James St,,47.81026015184006,-122.38048735762428,,,0,,0,
1095,,3rd Ave N & 4th Ave N,,47.81486936497762,-122.37684718087316,,,0,,0,
1096,,3rd Ave N & Sater Ln,,47.81667167402684,-122.37536608692778,,,0,,0,
1097,,35th Ave W & 148th St SW,,47.86352619568393,-122.28061615559224,,,0,,0,
1098,,35th Ave W & 156th St SW,,47.856763721285915,-122.2804679079412,,,0,,0,
1099,,35th Ave SE & 156th St SE,,47.8566650934911,-122.18711738385578,,,0,,0,
11,,36th Ave NW & Marine Dr,,48.06716532573585,-122.28140937613557,,,0,,0,
1100,,35th Ave SE & 164th St SE,,47.84880998554145,-122.18685504990492,,,0,,0,
1101,,36th Ave W & 165th Pl SW,,47.84926662047784,-122.28203447562034,,,0,,0,
1102,,36th Ave W & 167th Pl SW,,47.846371385788615,-122.28201459933568,,,0,,0,
1103,,36th Ave W & 172nd St SW,,47.84271147192427,-122.28196926761628,,,0,,0,
1104,,36th Ave W & 176th Pl SW,,47.838519912056896,-122.28190093120838,,,0,,0,
1105,,36th Ave W & 184th St SW,,47.83140125845411,-122.28194623438368,,,0,,0,
1107,,36th Ave W & 180th Pl SW,,47.834798558999516,-122.28194348811077,,,0,,0,
1110,,39th Ave SE & 243rd Pl SE,,47.777513428197736,-122.1805403374963,,,0,,0,
1114,,4th Ave W & 213th Pl SW,,47.80469304951233,-122.23862414800595,,,0,,0,
1115,,4th Ave W & 216th St SW,,47.802113863235505,-122.23854609495788,,,0,,0,
1116,,4th Ave W & 219th Pl SW,,47.79908624047082,-122.23859018920409,,,0,,0,
1117,,4th St & Date St,,47.8652876749531,-121.81663792279376,,,0,,0,
1120,,4th Ave W & Hubbard Rd,,47.80671583501374,-122.23823941469509,,,0,,0,
1123,,4th St & Main St,,47.86259793851937,-121.8166561096189,,,0,,0,
1126,,44th Ave W & 208th St SW,,47.810368100479515,-122.29247881133446,,,0,,0,
1127,,44th Ave W & 168th St SW,,47.84601889027971,-122.29269695404122,,,0,,0,
1128,,44th Ave W & 176th St SW,,47.83899426174706,-122.29267826638538,,,0,,0,
1129,,44th Ave W & 180th St SW,,47.835350327616524,-122.29266928946731,,,0,,0,
1130,,44th Ave W & 181st Pl SW,,47.83379852688891,-122.29265815826652,,,0,,0,
1131,,44th Ave W & 183rd Pl SW,,47.83223043611356,-122.29263435248343,,,0,,0,
1133,,44th Ave W & 212th St SW,,47.8060080886942,-122.29250260871639,,,0,,0,
1134,,44th Ave W & 221st Pl SW,,47.799219471433304,-122.29246618756994,,,0,,0,
1135,,44th Ave W & 222nd St SW,,47.797300375833714,-122.29244473362574,,,0,,0,
1136,,44th Ave W & 224th St SW,,47.79585014203098,-122.29242426784364,,,0,,0,
1137,,44th Ave W & 228th St SW,,47.791630694471785,-122.29239098435008,,,0,,0,
1138,,44th Ave W & 230th Pl SW,,47.78935192004546,-122.29219259622586,,,0,,0,
1140,,44th Ave W & 172nd Pl SW,,47.84234485989796,-122.29268305371714,,,0,,0,
1141,,44th Ave W & 174th Pl SW,,47.84069971152279,-122.292681509341,,,0,,0,
1142,,44th Ave W & 192nd St SW,,47.824882624933586,-122.29258621955704,,,0,,0,
1143,,44th Ave W & 189th Pl SW,,47.82646473343736,-122.29258598508834,,,0,,0,
1144,,44th Ave W & 217th St SW,,47.801761078887196,-122.2924807457347,,,0,,0,
1145,,44th Ave W & 226th St SW,,47.79343208504261,-122.29239691443418,,,0,,0,
1146,,44th Ave W & 186th St SW,,47.83046220278674,-122.29260898335895,,,0,,0,
1148,,47th Ave W & 107th St SW,,47.90089059536239,-122.2946278465108,,,0,,0,
1149,,47th Ave W & 109th St SW,,47.89888385032652,-122.29588817327694,,,0,,0,
1150,,47th Pl W & Harbour Pointe Blvd,,47.9044461270818,-122.29683242786761,,,0,,0,
1155,,48th Ave W & 194th St SW,,47.82257052565967,-122.29799305990436,,,0,,0,
1156,,48th Ave W & 196th St SW,,47.820278559533925,-122.29796899594645,,,0,,0,
1160,,48th Ave W & 228th St SW,,47.79169021477439,-122.29780845108014,,,0,,0,
1161,,48th Ave W & 233rd St SW,,47.78711955815697,-122.2977932943682,,,0,,0,
1166,,5th Ave S & Dayton St,,47.80944703189325,-122.3777603118553,,,0,,0,
1167,,5th Ave S & Howell Wy,,47.806138093643916,-122.37771056865134,,,0,,0,
1168,,5th Ave S & Pine St,,47.80333841378989,-122.37771670233828,,,0,,0,
1170,,5th Ave S & Elm Wy,,47.800212454827026,-122.37772125511978,,,0,,0,
1173,,51st Ave NE & 146th St NE,,48.12838516326624,-122.16250187326867,,,0,,0,
1174,,51st Ave NE & 110th Pl NE,,48.09495546859826,-122.1624461698882,,,0,,0,
1175,,51st Ave NE & 130th Pl NE,,48.113443190667674,-122.16244809146407,,,0,,0,
1176,,51st Ave NE & 135th Pl NE,,48.11833530417236,-122.16261523235397,,,0,,0,
1177,,51st Ave NE & 139th St NE,,48.12088400255495,-122.16271374756482,,,0,,0,
1178,,51st Ave NE & 117th Pl NE,,48.10130631010822,-122.16236843498153,,,0,,0,
1179,,51st Ave NE & 123rd Pl NE,,48.106460765278335,-122.16237445369438,,,0,,0,
1180,,51st Ave NE & 128th Pl NE,,48.11129400430427,-122.16241722411507,,,0,,0,
1181,,51st Ave NE & 126th Pl NE,,48.10937491476752,-122.16240457526428,,,0,,0,
1182,,51st Ave NE & 142nd Pl NE,,48.12491096663343,-122.16277261267251,,,0,,0,
1183,,51st Ave NE & 119th Pl NE,,48.10299823473486,-122.16234656878076,,,0,,0,
1184,,51st Ave NE & 139th Pl NE,,48.12242960982094,-122.16277819821043,,,0,,0,
1185,,52nd Ave W & 148th St SW,,47.86410518195807,-122.30379265795565,,,0,,0,
1187,,52nd Ave W & 156th St SW,,47.85716506531538,-122.30381152518225,,,0,,0,
1188,,52nd Ave W & 160th St SW,,47.853479971604116,-122.3038046668841,,,0,,0,
1189,,52nd Ave W & 169th Pl SW,,47.84583098886725,-122.30372194044222,,,0,,0,
1190,,52nd Ave W & 172nd Pl SW,,47.84185007777928,-122.30369040183783,,,0,,0,
1191,,52nd Ave W & 204th St SW,,47.81350250819496,-122.30335842329798,,,0,,0,
1192,,52nd Ave W & 212th St SW,,47.806162598670504,-122.30333343277323,,,0,,0,
1193,,52nd Ave W & 217th St SW,,47.80266424044058,-122.30330342180841,,,0,,0,
1194,,52nd Ave W & Hwy 99,,47.83228288920256,-122.30351662830955,,,0,,0,
1195,,52nd Ave W & 173rd Pl SW,,47.839495912795066,-122.30359914775809,,,0,,0,
1196,,52nd Ave W & 208th St SW,,47.81041808955247,-122.30333607513333,,,0,,0,
1197,,52nd Ave W & 164th St SW,,47.84995664510764,-122.3037983287158,,,0,,0,
1199,,56th Ave W & 200th St SW,,47.81692244602614,-122.30883315974349,,,0,,0,
12,,Totem Beach Rd & Senior Center Driveway,,48.06158552152717,-122.27771876602027,,,0,,0,
1200,,56th Ave W & 202nd St SW,,47.815477804519325,-122.30880424506411,,,0,,0,
1201,,56th Ave W & 204th St SW,,47.81356087736794,-122.30882701874394,,,0,,0,
1202,,56th Ave W & 224th St SW,,47.795477099077985,-122.30865421555178,,,0,,0,
1203,,56th Ave W & 234th St SW,,47.78627037461323,-122.30859165012502,,,0,,0,
1206,,56th Ave W & 222nd Pl SW,,47.79717970855075,-122.30866603906654,,,0,,0,
1207,,56th Ave W & 232nd St SW,,47.78869960304166,-122.3086037977616,,,0,,0,
1209,,56th Ave W & 228th St SW,,47.791830412085076,-122.30864404560216,,,0,,0,
1214,,59th Ave NE & 172nd St NE,,48.15235482415486,-122.15095564981713,,,0,,0,
1215,,59th Ave NE & 188th St NE,,48.16353419080024,-122.15131965257797,,,0,,0,
1216,,59th Ave NE & 180th St NE,,48.15741142285933,-122.15112193789753,,,0,,0,
1218,,64th Ave W & 180th St SW,,47.8353704536872,-122.31982873225827,,,0,,0,
1219,,64th Ave W & 182nd St SW,,47.83368413762944,-122.31982921738866,,,0,,0,
1220,,64th Ave W & 185th St SW,,47.83144393866049,-122.3198301000924,,,0,,0,
1221,,64th Ave W & 178th Pl SW,,47.83730066051035,-122.3198393176652,,,0,,0,
1222,,66th Ave W & 220th St SW,,47.7990011182305,-122.32213113613143,,,0,,0,
1223,,66th Ave W & 222nd St SW,,47.797443674761496,-122.32213117737946,,,0,,0,
1224,,66th Ave W & 224th St SW,,47.79558730829926,-122.32213484313554,,,0,,0,
1225,,66th Ave W & 226th St SW,,47.79378312572089,-122.32213186870717,,,0,,0,
1227,,67th Ave NE & 204th St NE,,48.180616648313745,-122.14061451813707,,,0,,0,
1231,,67th Ave NE & 199th St NE,,48.17679922929122,-122.14069792007338,,,0,,0,
1237,,68th Ave W & 188th Pl SW,,47.82780614543735,-122.32523899475115,,,0,,0,
1238,,68th Ave W & 192nd Pl SW,,47.8240798228718,-122.32523757307877,,,0,,0,
1239,,68th Ave W & 196th St SW,,47.820894474734665,-122.32517437095622,,,0,,0,
1240,,68th Ave W & 204th St SW,,47.813839602125526,-122.32494688426152,,,0,,0,
1242,,Edmonds P&R - Bay 1,,47.805723766712674,-122.33015507852505,,,0,,0,
1243,,72nd Ave NW & 261st St NW,,48.23331717023091,-122.33028882457653,,,0,,0,
1244,,72nd Ave NW & 267th Pl NW,,48.23912002405911,-122.33040856632654,,,0,,0,
1245,,72nd Ave NW & 265th St NW,,48.23751108507624,-122.33036991596344,,,0,,0,
1246,,72nd Ave NW & 268th St NW,,48.240389267069304,-122.33042501141954,,,0,,0,
1251,,76th Ave W & 196th St SW,,47.820357162240136,-122.33604542926612,,,0,,0,
1252,,76th Ave W & 200th St SW,,47.8175608715836,-122.33600506076661,,,0,,0,
1253,,76th Ave W & 203rd St SW,,47.81456401007114,-122.33599551892657,,,0,,0,
1254,,76th Ave W & 206th St SW,,47.81199532297236,-122.3359536147611,,,0,,0,
1255,,76th Ave W & 212th St SW,,47.806498509366214,-122.33588789156683,,,0,,0,
1256,,76th Ave W & 218th St SW,,47.80128970614583,-122.3358142503734,,,0,,0,
1257,,76th Ave W & 230th St SW,,47.79034873356211,-122.33563964259032,,,0,,0,
1258,,76th Ave W & 234th St SW,,47.78672176950945,-122.33558746140338,,,0,,0,
1259,,76th Ave W & 236th St SW,,47.78482455452197,-122.33556911919646,,,0,,0,
1260,,76th Ave W & 238th Pl SW,,47.782982586242916,-122.33551983204485,,,0,,0,
1261,,76th Ave W & 242nd St SW,,47.77933337153715,-122.3354914304874,,,0,,0,
1263,,76th Ave W & 208th St SW,,47.81023811377143,-122.33592302686786,,,0,,0,
1264,,76th Ave W & 216th St SW,,47.803156928906496,-122.33581952846467,,,0,,0,
1265,,8th St & Fir Ave,,47.8671128422657,-121.8100107973616,,,0,,0,
1266,,8th Ave S & Main St,,47.81027176608678,-122.3696723707426,,,0,,0,
1267,,8th St & Alder Ave,,47.86339191884303,-121.81006691854358,,,0,,0,
1271,,84th Ave W & 216th St SW,,47.802994542097544,-122.34666517246154,,,0,,0,
1272,,84th Ave W & 218th St SW,,47.80122620905325,-122.34664611139813,,,0,,0,
1273,,84th Ave W & 220th St SW,,47.79943035861121,-122.34663438768285,,,0,,0,
1274,,84th Ave W & 228th St SW,,47.79211071609371,-122.34652248918196,,,0,,0,
1275,,84th Ave W & 230th St SW,,47.790331525587206,-122.34649498236928,,,0,,0,
1276,,84th Ave W & Bowdoin Wy,,47.806292368981865,-122.3467248168707,,,0,,0,
1277,,84th Ave W & Holly Ln,,47.78806176117505,-122.34644909395811,,,0,,0,
1278,,84th Ave W & 224th St SW,,47.79611866350508,-122.34658656030433,,,0,,0,
1279,,84th Ave W & 236th St SW,,47.78521080998284,-122.34639438943896,,,0,,0,
1280,,84th Ave W & 238th St SW,,47.783535989717805,-122.34635366221305,,,0,,0,
1282,,88th Ave NW & 270th St NW,,48.24122325350533,-122.35217080854362,,,0,,0,
1283,,9th Ave S & Alder St,,47.807769773774105,-122.36711533106445,,,0,,0,
1285,,9th Ave S & Dayton St,,47.809489202984985,-122.36710108230487,,,0,,0,
1286,,9th Ave N & Hindley Ln,,47.819447050269844,-122.36718408744773,,,0,,0,
1288,,91st Ave SE & 12th Pl SE,,47.98461055660282,-122.10899409745579,,,0,,0,
1289,,91st Ave SE & 17th St SE,,47.98035232262294,-122.1090155493129,,,0,,0,
1290,,91st Ave SE & 8th St SE,,47.988644523391656,-122.10892217656675,,,0,,0,
1292,,96th Ave W & Walnut St,,47.806983802947876,-122.36172343357964,,,0,,0,
1293,,96th Ave W & 220th St SW,,47.79985188792363,-122.36172073355667,,,0,,0,
1294,,96th Ave W & 216th St SW,,47.80320227523038,-122.36174625243325,,,0,,0,
1299,,Airport Rd & Admiralty Wy,,47.88407195900648,-122.25411245572954,,,0,,0,
13,,Totem Beach Rd & 70th St NW,,48.0592507774661,-122.27477808731565,,,0,,0,
1301,,Airport Rd & Hwy 99,,47.889038117889605,-122.25825606297259,,,0,,0,
1302,,S Alder Ave & E Stanley St,,48.08313443353725,-121.96417045412285,,,0,,0,
1303,,Alderwood Mall Pkwy & 184th St SW,,47.83117913179017,-122.26869365963017,,,0,,0,
1305,,Alderwood Mall Pkwy & 186th St SW,,47.82857484301604,-122.26865002057662,,,0,,0,
1307,,Beverly Park Rd & 138th Pl SW,,47.87268528750904,-122.29347717013643,,,0,,0,
1308,,Beverly Park Rd & 49th Pl W,,47.86767747928656,-122.30105387687436,,,0,,0,
1309,,Beverly Park Rd & Harbour Heights Rd,,47.87628205898158,-122.28944187626189,,,0,,0,
1310,,Beverly Park Rd & Hwy 525,,47.882155406147376,-122.28079056985351,,,0,,0,
1312,,Beverly Park Rd & 47th Pl W,,47.87460735159374,-122.29133062326412,,,0,,0,
1313,,Beverly Park Rd & 132nd St SW,,47.8788714548716,-122.2865597518297,,,0,,0,
1314,,Bickford Ave & 52nd St SE,,47.94891406428742,-122.11425131563283,,,0,,0,
1316,,Brier Rd & 232nd St SW,,47.788908573705456,-122.27442009700951,,,0,,0,
1329,,Brook Blvd & Palomino Dr,,47.837124690310745,-122.20451734995568,,,0,,0,
1330,,Brook Blvd & 175th St SE,,47.8393234937329,-122.2022460111669,,,0,,0,
1332,,Cedar Wy & 232nd St SW,,47.78798610965637,-122.2917879919461,,,0,,0,
1347,,Cypress Wy & 209th Pl SW,,47.80858535884931,-122.26039558706903,,,0,,0,
1348,,Cypress Wy & 206th St SW,,47.81171065701353,-122.25977743604548,,,0,,0,
1349,,Snohomish P&R - Bay 1,,47.931398162299054,-122.10031746820812,,,0,,0,
1350,,Ave D & Fifth St,,47.91741967631913,-122.09840480145964,,,0,,0,
1351,,Ave D & Bonneville Ave,,47.92282726449465,-122.09808836432116,,,0,,0,
1352,,Ave D & Third St,,47.91499144759287,-122.098561578133,,,0,,0,
1353,,Ave D & 13th St,,47.926705278480675,-122.09823623169271,,,0,,0,
1354,,Emens Ave & Darrington St,,48.24931849616921,-121.60231371517166,,,0,,0,
1366,,Evergreen Wy & 75th St SE,,47.92895128486376,-122.22171640525467,,,0,,0,
1367,,Evergreen Wy & 79th Pl SE,,47.925576246739446,-122.22486078779389,,,0,,0,
1370,,Evergreen Wy & Madison St,,47.93562317350088,-122.21937805276623,,,0,,0,
1372,,Evergreen Wy & Pecks Dr,,47.94077538937542,-122.2179981801368,,,0,,0,
1375,,Evergreen Wy & 50th St SE,,47.951418548279634,-122.21397325192684,,,0,,0,
1379,,Firdale Ave & 243rd Pl SW,,47.77817948404537,-122.36271334353331,,,0,,0,
1380,,Firdale Ave & 240th Pl SW,,47.78108477255669,-122.36628140027962,,,0,,0,
1382,,S French Ave & E Maple St,,48.191095331699714,-122.12288824439595,,,0,,0,
1384,,S French Ave & E Highland Dr,,48.187887339195,-122.12290624950762,,,0,,0,
1385,,Grade Rd & 24th Pl NE,,48.0189066194018,-122.06313492726183,,,0,,0,
1386,,Grade Rd & 29th Pl NE,,48.02435946445231,-122.06445826496739,,,0,,0,
1387,,Grade Rd & Hwy 92,,48.03007613589975,-122.07234051709015,,,0,,0,
1389,,Harbour Pointe Blvd & Chennault Beach Rd,,47.89762301513365,-122.30483482605293,,,0,,0,
1390,,Harbour Pointe Blvd & Double Eagle Dr,,47.88749811294327,-122.31028260862564,,,0,,0,
1391,,Harbour Pointe Blvd & Harbour Heights Pkwy,,47.895402175888314,-122.3086571799833,,,0,,0,
1392,,Harbour Pointe Blvd & Saint Andrews Dr,,47.89350805907582,-122.311799537339,,,0,,0,
1393,,Harbour Pointe Blvd & 47th Pl W,,47.90498283144449,-122.29581590697732,,,0,,0,
1394,,Hubbard Rd & Damson Rd,,47.80910681425157,-122.24335543274731,,,0,,0,
1397,,I-5 & Marine Dr NE Flyer Sto,,48.05161077453081,-122.1856693018751,,,0,,0,
1398,,I-5 & 116th St NE Flyer Stop,,48.10059866015728,-122.18634880135346,,,0,,0,
1399,,Bothell P&R - Bay 2,,47.75927447749025,-122.19921507315554,,,0,,0,
14,,Totem Beach Rd & 64th St NW,,48.05546599360698,-122.27114288396074,,,0,,0,
140,,Puget Park Dr & 136th St SE,,47.87405872334391,-122.15412200844351,,,0,,0,
1401,,Lakeview Dr & Ballinger Park,,47.78778538658635,-122.32682989276628,,,0,,0,
1403,,Marine Dr & Warm Beach Conf Ctr,,48.18417601904788,-122.34742831817302,,,0,,0,
1405,,Marine Dr & Boe Rd,,48.212675161927294,-122.33630500428927,,,0,,0,
1406,,Marine Dr & 233rd St NW,,48.20979210388955,-122.33683196275595,,,0,,0,
1407,,Marine Dr & Thomle Rd,,48.22472101436833,-122.33727671620215,,,0,,0,
1408,,Marine Dr & 201st St NW,,48.178888771669236,-122.35207752688264,,,0,,0,
1409,,Marine Dr & 81st Ave NW,,48.188964776654686,-122.34042219306339,,,0,,0,
141,,Puget Park Dr & 138th Pl SE,,47.87135715247049,-122.15656742057449,,,0,,0,
1410,,Marine Dr & 226th St NW,,48.20301727406321,-122.33828275848383,,,0,,0,
1413,,Mill Creek Blvd & W Evergreen Ave,,47.86562762952808,-122.21150234701268,,,0,,0,
1414,,Mill Creek Blvd & Juniper Pl,,47.860606821232096,-122.2153982065409,,,0,,0,
1415,,Mill Creek Blvd & 159th Pl SE,,47.853024119264084,-122.22094386267283,,,0,,0,
1419,,Mountain Loop Hwy & Alvord St,,48.25129005112755,-121.60100915005489,,,0,,0,
142,,164th St SW & Larch Wy,,47.849720163425175,-122.24734507719982,,,0,,0,
1420,,Emens Ave N & Seeman St,,48.25477167018822,-121.60182881072572,,,0,,0,
1424,,S Olympic Ave & E Jackson St,,48.1890096825866,-122.12672708035146,,,0,,0,
1427,,Olympic View Dr & 172nd St SW,,47.84281444105517,-122.3221806747249,,,0,,0,
143,,164th St SE & 1st Ave SE,,47.849220827064464,-122.23109475925536,,,0,,0,
1430,,Olympic View Dr & 170th Pl SW,,47.84446940271248,-122.31974362940284,,,0,,0,
1435,,Railroad Ave & W Dayton St,,47.8104462747519,-122.38556479081788,,,0,,0,
1436,,Railroad Ave & Main St,,47.81194214412115,-122.38363939542319,,,0,,0,
1438,,Rucker Ave & 35th St,,47.97095613718611,-122.21131461479571,,,0,,0,
144,,Puget Park Dr & 146th St SE,,47.865136847721445,-122.16310303841992,,,0,,0,
1440,,Rucker Ave & 42nd St SE,,47.96221957214781,-122.21094287562954,,,0,,0,
1441,,Rucker Ave & Pacific Ave,,47.97631326862567,-122.21157999229727,,,0,,0,
1443,,Shoultes Rd & 107th Pl NE,,48.09174931057067,-122.1639554979909,,,0,,0,
1444,,Shoultes Rd & 100th St NE,,48.08616638665468,-122.17132855993982,,,0,,0,
1445,,Shoultes Rd & 103rd Pl NE,,48.08883684530636,-122.167088682166,,,0,,0,
1447,,Smokey Point Blvd & 156th St NE (farside),,48.13695786824231,-122.18327332870999,,,0,,0,
1448,,Smokey Point Blvd & 172nd St NE,,48.15203945782613,-122.18311148700946,,,0,,0,
1449,,Smokey Point Blvd & 173rd Pl NE,,48.15435086560959,-122.18310242317108,,,0,,0,
145,,Puget Park Dr & 148th St SE,,47.86375034431309,-122.16090387353566,,,0,,0,
1450,,Smokey Point Blvd & 156th St NE (nearside),,48.138762644801204,-122.1832141293185,,,0,,0,
1451,,Smokey Point Blvd & 183rd Pl NE,,48.16287832058082,-122.18305142852644,,,0,,0,
1453,,Smokey Point Blvd & 177th Pl NE,,48.1571448171542,-122.18309371581678,,,0,,0,
1455,,Hwy 525 & 3rd St,,47.946465075635906,-122.30419264501414,,,0,,0,
1456,,Hwy 525 & 81st Pl SW,,47.92397251677963,-122.30038737976403,,,0,,0,
1457,,Hwy 525 & 84th St SW,,47.921640035351466,-122.30031714159682,,,0,,0,
1458,,Hwy 525 & 88th St SW,,47.918276909816356,-122.30022176002434,,,0,,0,
1459,,Hwy 525 & 92nd St SW,,47.91475826977577,-122.29706707434649,,,0,,0,
146,,Puget Park Dr & Silver Firs Dr,,47.86255264578464,-122.15518122964033,,,0,,0,
1460,,Hwy 525 & Beverly Park Rd,,47.88203211956544,-122.27969881680194,,,0,,0,
1461,,Hwy 525 & Chennault Beach Rd,,47.898922714312924,-122.29133889971229,,,0,,0,
1462,,Hwy 525 & Harbour Pointe Blvd SW,,47.88948562821178,-122.28481946799754,,,0,,0,
1464,,Hwy 525 & Russell Rd,,47.89597943946008,-122.28927855033056,,,0,,0,
1465,,Hwy 525 & Front St,,47.94845357024102,-122.30435941831013,,,0,,0,
1466,,Hwy 525 & Harbour Pointe Blvd,,47.90564045349494,-122.29327355932976,,,0,,0,
1467,,Hwy 525 & Lincoln Wy,,47.873644864135905,-122.27663617386219,,,0,,0,
1468,,Hwy 525 & 76th St SW,,47.92920498258411,-122.30181687007801,,,0,,0,
1469,,Hwy 525 & 80th St SW,,47.92561712822509,-122.30042995194879,,,0,,0,
147,,Puget Park Dr & 62nd Dr SE,,47.86302991017899,-122.14803056032414,,,0,,0,
1470,,Hwy 525 & Clover Ln,,47.933312512995165,-122.30650324719349,,,0,,0,
1472,,Hwy 525 & Goat Trail Rd,,47.939968855338705,-122.3059461460285,,,0,,0,
1473,,Hwy 527 & 16th Ave SE,,47.87679452948326,-122.2120237895859,,,0,,0,
1474,,Hwy 527 & 164th St SE,,47.848642833654566,-122.21730302894012,,,0,,0,
1475,,Hwy 527 & NE 190th St,,47.7650223640065,-122.20918768684027,,,0,,0,
1476,,Hwy 527 & 192nd St SE,,47.82352931868855,-122.20757350479299,,,0,,0,
1477,,Hwy 527 & 196th St SE,,47.81985757331758,-122.20760234534052,,,0,,0,
1478,,Hwy 527 & 19th Dr SE,,47.8135397114762,-122.20764650318928,,,0,,0,
1479,,Hwy 527 & 208th St SE,,47.80896239690101,-122.2077367984429,,,0,,0,
148,,Snohomish Cascade Dr & 146th Pl SE,,47.86456976675344,-122.14525821788963,,,0,,0,
1481,,Hwy 527 & 228th St SE,,47.79050583099004,-122.21756606148155,,,0,,0,
1482,,Hwy 527 & 234th St SE,,47.78321811674102,-122.22047967083537,,,0,,0,
1483,,Hwy 527 & 180th St SE,,47.83483102514958,-122.2110211414601,,,0,,0,
1485,,Hwy 527 & 240th St SE,,47.78069109364206,-122.21994426061008,,,0,,0,
1486,,Hwy 527 & Seattle Hill Rd,,47.84403064396187,-122.21597012360284,,,0,,0,
1487,,Hwy 527 & NE 186th St,,47.762595094232985,-122.20765121029828,,,0,,0,
1488,,Hwy 530 & Randall St,,48.25730635060653,-121.60199808563952,,,0,,0,
1489,,Hwy 530 & Sauk Prairie Rd,,48.26096451312801,-121.60224166549283,,,0,,0,
149,,Snohomish Cascade Dr & 142nd St SE,,47.868628495371055,-122.14423232054796,,,0,,0,
1490,,Arlington P&R - Bay 1,,48.19626392718046,-122.12894755280094,,,0,,0,
1491,,Hwy 9 & Lundeen Pkwy,,48.01298347850647,-122.10816685629096,,,0,,0,
1492,,Hwy 9 & Hwy 204,,48.00235700406776,-122.10638068447224,,,0,,0,
1493,,Hwy 99 & 40th Ave W,,47.86045159985975,-122.28565983779244,,,0,,0,
1495,,Hwy 99 & 60th Ave W,,47.82480049227074,-122.31219666683164,,,0,,0,
1497,,Hwy 99 & 148th St SW,,47.86362333085611,-122.28268876890235,,,0,,0,
1498,,Hwy 99 & 156th St SW,,47.85633081888591,-122.28951238577186,,,0,,0,
1499,,Hwy 99 & 168th St SW,,47.84583065789912,-122.29519667856245,,,0,,0,
15,,64th St NW & Totem Beach Rd,,48.0535977187582,-122.26728340347101,,,0,,0,
150,,Snohomish Cascade Dr & 141st St SE,,47.86977612156337,-122.1440983789485,,,0,,0,
1500,,Hwy 99 & 174th Pl SW,,47.84038658122484,-122.29872485366683,,,0,,0,
1501,,Hwy 99 & 176th St SW,,47.838534417700465,-122.30032595773764,,,0,,0,
1502,,Hwy 99 & 188th St SW,,47.827639913882145,-122.30974911528193,,,0,,0,
1503,,Hwy 99 & 196th St SW,,47.82060195724634,-122.31583869329722,,,0,,0,
1504,,Hwy 99 & 200th St SW,,47.81726300164174,-122.31873536346431,,,0,,0,
1505,,Hwy 99 & 202nd St SW,,47.815466485445114,-122.32025115493461,,,0,,0,
1506,,Hwy 99 & 208th St SW,,47.80972967066862,-122.32471464297645,,,0,,0,
1507,,Hwy 99 & 212th St SW,,47.80635017089078,-122.3271286943894,,,0,,0,
1508,,Hwy 99 & 216th St SW,,47.80256074848531,-122.32985212009385,,,0,,0,
1509,,Hwy 99 & 220th St SW,,47.79896752249013,-122.33245466641229,,,0,,0,
151,,Snohomish Cascade Dr & 138th Pl SE,,47.87129237604817,-122.14505365828839,,,0,,0,
1510,,Hwy 99 & 224th St SW,,47.79567346733257,-122.33482135985058,,,0,,0,
1511,,Hwy 99 & 230th St SW,,47.790206230873444,-122.33875635346747,,,0,,0,
1512,,Hwy 99 & 44th Ave W,,47.851234608700935,-122.2930842616229,,,0,,0,
1513,,Hwy 99 & Airport Rd,,47.888937714623474,-122.25905230699003,,,0,,0,
1514,,Hwy 99 & Russell Wy,,47.8795466980276,-122.26782163815297,,,0,,0,
1516,,Hwy 99 & 234th St SW,,47.78716388527039,-122.3409464798805,,,0,,0,
1517,,Hwy 99 & 238th St SW,,47.78354019817193,-122.34355067380854,,,0,,0,
1518,,Hwy 99 & Gibson Rd,,47.883363793576336,-122.2642915061997,,,0,,0,
1519,,Hwy 99 & Lincoln Wy,,47.873475838584895,-122.27351380216658,,,0,,0,
152,,Puget Park Dr & 54th Ave SE,,47.86858478598408,-122.16014765691382,,,0,,0,
1521,,Hwy 99 & 180th St SW,,47.83522643000756,-122.30319291814838,,,0,,0,
1522,,State Ave & 100th St NE,,48.08349332571527,-122.17319464847863,,,0,,0,
1524,,State Ave & 6th St,,48.053495549786774,-122.17716756160608,,,0,,0,
1525,,State Ave & 8th St,,48.05520388828584,-122.17715071775844,,,0,,0,
1526,,State Ave & 80th St NE,,48.06823867559547,-122.17712627458712,,,0,,0,
1527,,State Ave & 88th St NE,,48.0752538782586,-122.1762780921825,,,0,,0,
1528,,State Ave & Grove St,,48.06089623213432,-122.17711904895869,,,0,,0,
1529,,State Ave & 84th St NE,,48.0719990036789,-122.17677834173698,,,0,,0,
153,,Snohomish Cascade Dr & 142nd St SE,,47.86809488092177,-122.14485855792154,,,0,,0,
1530,,State Ave & 10th St,,48.05787439992127,-122.17715075751865,,,0,,0,
1531,,State Ave & 76th St NE,,48.06472395288699,-122.1771042416375,,,0,,0,
1533,,Stevens Wy & Pend Oreille Rd,,47.65693452440491,-122.30493770032308,,,0,,0,
1534,,Stevens Wy & Benton Ln,,47.65432550349111,-122.30525749890596,,,0,,0,
1535,,S Stillaguamish Ave & Highland Dr,,48.188689765883325,-122.11783802595502,,,0,,0,
1536,,Village Green Dr & Country Club Dr,,47.85560890108306,-122.20579300454742,,,0,,0,
1537,,Village Green Dr & Fairway Dr SE,,47.86488048088412,-122.19628817853676,,,0,,0,
1538,,Village Green Dr & Willow Ln SE,,47.86536896101514,-122.20244969950858,,,0,,0,
1539,,Village Green Dr & Mill Creek Rd,,47.85257058862436,-122.2087840319868,,,0,,0,
154,,Snohomish Cascade Dr & 146th Pl SE,,47.86395226632143,-122.1455481604331,,,0,,0,
1540,,Village Green Dr & Woodfern Ln SE,,47.85581450048887,-122.19938611546661,,,0,,0,
1541,,Village Green Dr & Cottonwood Ln,,47.863917878582804,-122.19515456561163,,,0,,0,
1542,,Village Green Dr & 20th Dr SE,,47.866883766673965,-122.20645859447859,,,0,,0,
1543,,Village Green Dr & 152nd Pl SE,,47.86021801119058,-122.19570507333509,,,0,,0,
1549,,E 1st St & N Lenore Ave,,48.19251259970746,-122.12168131679493,,,0,,0,
155,,Puget Park Dr & 62nd Dr SE,,47.86323476442694,-122.14881398053674,,,0,,0,
1550,,E 1st St & N Stillaguamish Ave,,48.1924750001088,-122.11768649816102,,,0,,0,
1551,,107th St SW & 47th Ave W,,47.90133310025426,-122.29497470559033,,,0,,0,
1552,,128th St SE & 3rd Ave SE,,47.88207807454154,-122.22876197154757,,,0,,0,
1553,,128th St SW & 4th Ave W,,47.882026545955675,-122.23923999081974,,,0,,0,
1554,,128th St SW & 8th Ave W,,47.881931797911285,-122.24470741619338,,,0,,0,
1557,,132nd St SE & 25th Ave SE,,47.87813129582695,-122.19910283328761,,,0,,0,
1558,,132nd St SE & 29th Ave SE,,47.87808276420745,-122.1937420618292,,,0,,0,
1559,,132nd St SE & 35th Ave SE,,47.87798612479973,-122.18570642646584,,,0,,0,
156,,Puget Park Dr & Silver Firs Dr,,47.862633169805854,-122.15627930014553,,,0,,0,
1560,,132nd St SE & 44th Ave SE,,47.87792269622941,-122.17362460104317,,,0,,0,
1562,,132nd St SE & Seattle Hill Rd,,47.87788508655731,-122.16651982417798,,,0,,0,
1564,,132nd St SE & 21st Dr SE,,47.878189990843566,-122.20267874551776,,,0,,0,
1565,,134th Pl SE & 58th Dr SE,,47.87595071218455,-122.15268681464129,,,0,,0,
1566,,148th St SW & 45th Pl W,,47.864316638602595,-122.29521332169845,,,0,,0,
1567,,148th St SW & 48th Pl W,,47.86441675734671,-122.29960050536708,,,0,,0,
1568,,148th St SW & 38th Pl W,,47.86425558534748,-122.28429150680665,,,0,,0,
1569,,152nd St NE & 47th Ave NE,,48.134026805143286,-122.16802124587072,,,0,,0,
157,,Puget Park Dr & 54th Ave SE,,47.86372846647384,-122.15995395516359,,,0,,0,
1570,,152nd St NE & 51st Ave NE,,48.133942506332495,-122.1627558659118,,,0,,0,
1571,,152nd St NE & 43rd Ave NE,,48.13409915537957,-122.17358533859627,,,0,,0,
1572,,152nd St NE & 40th Ave NE,,48.13421457192854,-122.1794291008374,,,0,,0,
1573,,Swamp Creek P&R - Bay 1,,47.850000805672224,-122.27644983495861,,,0,,0,
1574,,164th St SW & 2nd Pl W,,47.849505525282666,-122.23650383118303,,,0,,0,
1575,,164th St SW & 28th Ave W,,47.85004770967983,-122.27164030568512,,,0,,0,
1576,,164th St SE & 3rd Ave SE,,47.849358005774846,-122.22816966498306,,,0,,0,
1577,,164th St SW & Ash Wy,,47.84991779770257,-122.26122480679763,,,0,,0,
1578,,164th St SE & Meridian Ave S,,47.849453218643646,-122.23316626470468,,,0,,0,
1579,,164th St SW & 7th Pl W,,47.84964567117435,-122.24271965787045,,,0,,0,
158,,Puget Park Dr & 53rd Ave SE,,47.86399561685516,-122.16126871937477,,,0,,0,
1580,,164th St SE & Mill Creek Blvd,,47.849534791920945,-122.22107849478965,,,0,,0,
1581,,164th St SW & Meadow Rd,,47.8498267882635,-122.2526801821099,,,0,,0,
1582,,164th St SW & Spruce Wy,,47.85012510234789,-122.28504032130004,,,0,,0,
1583,,W Main St & Tester Rd,,47.848821336618634,-122.00430784655926,,,0,,0,
1584,,168th St SE & 28th Dr SE,,47.84566415657154,-122.194780569218,,,0,,0,
1586,,168th St SW & 52nd Ave W,,47.84667944387815,-122.30405559605374,,,0,,0,
1587,,168th St SW & 60th Ave W,,47.84668737954349,-122.31469527795527,,,0,,0,
1589,,168th St SE & 30th Dr SE,,47.84557154826348,-122.19127119812532,,,0,,0,
159,,Puget Park Dr & 138th Pl SE,,47.8723855660979,-122.15536300312671,,,0,,0,
1590,,168th St SE & 25th Ave SE,,47.84573090473961,-122.19883914482304,,,0,,0,
1591,,172nd St NE & 11th Ave NE,,48.151921258909965,-122.21590754684695,,,0,,0,
1592,,172nd St NE & Spring Lane Ave,,48.15232938887793,-122.19248154432928,,,0,,0,
1593,,172nd St NE & 3rd Ave NE,,48.152102137903825,-122.22749566712781,,,0,,0,
1594,,172nd St NE & Smokey Point Blvd,,48.15253859262797,-122.18356708716021,,,0,,0,
1595,,172nd St NW & Lakewood Rd,,48.152124589281925,-122.23781757982573,,,0,,0,
1597,,176th St SW & 53rd Pl W,,47.83923263623381,-122.30594570102079,,,0,,0,
1598,,176th St SW & 58th Ave W,,47.83922119616752,-122.31129284549138,,,0,,0,
1599,,176th St SW & 62nd Ave W,,47.839308761192626,-122.3165980295317,,,0,,0,
16,,Marine Dr NE & 33rd Ave NE,,48.05309521089355,-122.18766707112088,,,0,,0,
1600,,180th St SE & Hwy 527,,47.83479469588046,-122.20948493087836,,,0,,0,
1601,,184th St SW & 33rd Ave W,,47.83203933091059,-122.27832767278527,,,0,,0,
1602,,188th St SW & 36th Ave W,,47.82825840861163,-122.28220854699187,,,0,,0,
1603,,188th St SW & 48th Ave W,,47.82836395349993,-122.29844592187315,,,0,,0,
1604,,188th St SW & 64th Ave W,,47.828559816223134,-122.32000796011317,,,0,,0,
1605,,188th St NE & 67th Ave NE,,48.166480257471,-122.14110389155779,,,0,,0,
1607,,188th St SW & 40th Ave W,,47.82828548358528,-122.28676975072221,,,0,,0,
1608,,188th St SW & 41st Pl W,,47.82830350734681,-122.28966125737443,,,0,,0,
1609,,188th St NE & 59th Ave NE,,48.16671031975007,-122.14977798106509,,,0,,0,
161,,E 1st St & S French Ave,,48.19232467529305,-122.12230398450819,,,0,,0,
1610,,188th St NE & 63rd Ave NE,,48.16661554673384,-122.14487380515864,,,0,,0,
1611,,188th St NE & 35th Ave NE,,48.16708912230093,-122.18403072544596,,,0,,0,
1613,,194th St SW & 44th Ave W,,47.822848294720046,-122.29278543301665,,,0,,0,
1614,,194th St SW & 46th Ave W,,47.82290266442102,-122.29582423930857,,,0,,0,
1616,,196th St SW & 58th Pl SW,,47.821258763419806,-122.31255158279112,,,0,,0,
1617,,196th St SW & 64th Ave W,,47.82133539735081,-122.3201671264766,,,0,,0,
1618,,196th St SW & 68th Ave W,,47.821416649948716,-122.32592224234124,,,0,,0,
1619,,196th St SW & 76th Ave W,,47.82153890163343,-122.3364664748587,,,0,,0,
162,,E 1st St & N Washington Ave,,48.19228482346404,-122.11777606169831,,,0,,0,
1620,,196th St SW & 80th Ave W,,47.82154892849282,-122.34173916866784,,,0,,0,
1621,,196th St SW & 84th Ave W,,47.821560365297316,-122.34730097954849,,,0,,0,
1622,,196th St SW & 86th Ave W,,47.821540876041624,-122.34980429831681,,,0,,0,
1623,,196th St SW & Hwy 99,,47.82126051375121,-122.3162239504171,,,0,,0,
1624,,196th St SW & 50th Ave W,,47.8211814654247,-122.30132482481247,,,0,,0,
1625,,196th St SW & Heinz Pl,,47.82146895097358,-122.33093556376609,,,0,,0,
1626,,Second St & Ave C,,47.913047076912854,-122.09735985856533,,,0,,0,
1627,,Second St & Maple Ave,,47.91282741187135,-122.08916933826681,,,0,,0,
1628,,Second St & Pine Ave,,47.91275633370589,-122.08639845246816,,,0,,0,
1629,,Second St & Ave A,,47.91296648968357,-122.09422574310908,,,0,,0,
1630,,20th St NE & 112th Dr NE,,48.0155329234047,-122.07976792523469,,,0,,0,
1631,,20th St NE & 116th Ave NE,,48.015731151884204,-122.07488944312949,,,0,,0,
1632,,20th St NE & 118th Ave NE,,48.0157166618002,-122.0716649156783,,,0,,0,
1633,,20th St NE & 124th Ave NE,,48.0156284440336,-122.0638128249754,,,0,,0,
1635,,Alderwood Mall Blvd & 40th Ave W,,47.81741036029039,-122.28853689488992,,,0,,0,
1637,,200th St SW & 48th Ave W,,47.81748056356161,-122.29870412240675,,,0,,0,
1638,,200th St SW & 50th Ave W,,47.817514469643946,-122.30161584390792,,,0,,0,
1639,,200th St SW & 52nd Pl W,,47.817550816835784,-122.30433223241805,,,0,,0,
1640,,200th St SW & 56th Ave W,,47.81756464017198,-122.30942545538812,,,0,,0,
1641,,200th St SW & 64th Ave W,,47.817716194380885,-122.31994116494565,,,0,,0,
1642,,200th St SW & Scriber Lake Rd,,47.81762714528604,-122.31497603315897,,,0,,0,
1643,,Alderwood Mall Blvd & 44th Ave W,,47.81741775392243,-122.29204221578972,,,0,,0,
1645,,200th St SW & 66th Pl W,,47.81780099054208,-122.32416526752789,,,0,,0,
1646,,204th St SW & 28th Ave W,,47.81366927802409,-122.2712983901376,,,0,,0,
1647,,204th St NE & 77th Ave NE,,48.180924923914304,-122.1266796703408,,,0,,0,
1648,,204th St SW & Poplar Wy,,47.81365387187328,-122.27903630407289,,,0,,0,
1649,,204th St SW & 24th Ave W,,47.813582203297806,-122.26513300078172,,,0,,0,
165,,128th St SE & 3rd Ave SE,,47.88180742016485,-122.22757264042801,,,0,,0,
1650,,204th St SW & 38th Ave W,,47.81370693337855,-122.28371906509196,,,0,,0,
1651,,204th St NE & 71st Ave NE,,48.180973935196086,-122.13667158895922,,,0,,0,
1652,,207th St NE & S Stillaguamish Ave,,48.18429780384418,-122.11879845198033,,,0,,0,
1653,,208th St SW & 56th Ave W,,47.81030601671001,-122.30947518648244,,,0,,0,
1654,,208th St SW & 60th Ave W,,47.81036763158449,-122.31445916912536,,,0,,0,
1655,,208th St SW & 68th Ave W,,47.81056607114327,-122.32533706842153,,,0,,0,
1656,,208th St SW & 72nd Ave W,,47.8105951865633,-122.32940024680971,,,0,,0,
166,,128th St SW & 4th Ave W,,47.8817429960936,-122.23799318939429,,,0,,0,
1662,,212th St SW & 80th Ave W,,47.80701612221524,-122.34155234941011,,,0,,0,
1663,,212th St SW & 74th Ave W,,47.80697143153446,-122.33245006697355,,,0,,0,
1664,,212th St SW & 84th Ave W,,47.80702685463776,-122.34613165705856,,,0,,0,
1666,,220th St SW & 53rd Ave W,,47.7993550728917,-122.30476417389139,,,0,,0,
1667,,220th St SW & 70th Ave W,,47.79966750090378,-122.3284215587922,,,0,,0,
1668,,220th St SW & 76th Ave W,,47.799738569934966,-122.33616812189791,,,0,,0,
1669,,220th St SW & 80th Ave W,,47.799741292764075,-122.340538994749,,,0,,0,
167,,128th St SW & 8th Ave W,,47.881689450701536,-122.2436818112587,,,0,,0,
1670,,220th St SW & 82nd Pl W,,47.79971607165151,-122.34452244189572,,,0,,0,
1671,,220th St SW & 84th Ave W,,47.79970622257324,-122.34671569362712,,,0,,0,
1672,,220th St SW & 88th Ave W,,47.79967619507084,-122.35228209417123,,,0,,0,
1673,,220th St SW & 93rd Pl W,,47.799683891634,-122.35664498743895,,,0,,0,
1674,,220th St SW & 95th Ave W,,47.79968150506035,-122.36051923067963,,,0,,0,
1675,,220th St SW & Hwy 99,,47.79973138174473,-122.33379531558944,,,0,,0,
1676,,220th St SW & 58th Ave W,,47.799544586559385,-122.3108983608973,,,0,,0,
1677,,220th St SW & 66th Ave W,,47.799568474790924,-122.32172825884022,,,0,,0,
1678,,220th St SW & 77th Pl W,,47.799736829106756,-122.33817440343847,,,0,,0,
168,,128th St SW & E Gibson Rd,,47.88175178614024,-122.24973228699085,,,0,,0,
1680,,228th St SE & 15th Ave SE,,47.79140194537947,-122.21352925671313,,,0,,0,
1681,,228th St SW & 32nd Ave W,,47.79192179708591,-122.27703880472919,,,0,,0,
1682,,228th St SW & 39th Ave W,,47.7919012807252,-122.28708451586495,,,0,,0,
1683,,228th St SW & 42nd Pl W,,47.79192978416537,-122.29022656521141,,,0,,0,
1684,,228th St SW & 73rd Pl W,,47.7924088163896,-122.33223655923126,,,0,,0,
1685,,228th St SW & 35th Ave W,,47.791860588394016,-122.28014171815454,,,0,,0,
1686,,228th St SW & 76th Ave W,,47.79246740498466,-122.33529005160283,,,0,,0,
1687,,228th St SW & 29th Ave W,,47.7920687074779,-122.27235136810356,,,0,,0,
1689,,230th St SW & 60th Ave W,,47.79037499517837,-122.31368466523804,,,0,,0,
169,,128th St SE & 6th Ave SE,,47.881679763909,-122.22251500054425,,,0,,0,
1690,,232nd St SE & 20th Ave SE,,47.78772139383355,-122.20655541413328,,,0,,0,
1694,,Mountlake Terrace TC - Bay 3,,47.7848470952702,-122.31517052124775,,,0,,0,
1695,,236th St SW & 48th Ave W,,47.784744445439735,-122.2980516975161,,,0,,0,
1696,,236th St SW & 50th Ave W,,47.78477471599671,-122.30081908246345,,,0,,0,
1697,,236th St SW & 52nd Ave W,,47.78481797813022,-122.30342410350133,,,0,,0,
1698,,236th St SW & 54th Ave W,,47.784829981004094,-122.30610961162434,,,0,,0,
1699,,236th St SW & 56th Ave W,,47.784859012476005,-122.30916990399744,,,0,,0,
17,,Marine Dr NE & Meridian Ave N,,48.0385167809403,-122.23269776179389,,,0,,0,
1701,,236th St SW & 44th Pl W,,47.78482498726967,-122.29176011755861,,,0,,0,
1703,,238th St SW & 86th Ave W,,47.78332140772062,-122.34723430451905,,,0,,0,
1704,,238th St SW & 84th Ave W (nearside),,47.78332898629444,-122.34583500947953,,,0,,0,
1705,,238th St SW & Edmonds Wy,,47.78330588390501,-122.3506756855701,,,0,,0,
1707,,244th St SW & 3rd Ave NW,,47.77785713292543,-122.35872945418049,,,0,,0,
1708,,244th St SW & 87th Pl W,,47.777851430214874,-122.35113444172396,,,0,,0,
1709,,244th St SW & 91st Ave W,,47.77784603874409,-122.35421778066886,,,0,,0,
171,,132nd St SE & 25th Ave SE,,47.87793006228505,-122.19827424308654,,,0,,0,
1710,,244th St SW & Whitman Ave N,,47.777881643513204,-122.3476206283322,,,0,,0,
1711,,Stanwood II Park & Ride &,,48.2393018518108,-122.34962673731155,,,0,,0,
1712,,272nd St NW & 76th Dr NW,,48.24317510762509,-122.33693828545199,,,0,,0,
1713,,272nd St NW & 78th Ave NW,,48.243185570105005,-122.33970519068107,,,0,,0,
1714,,272nd St NW & 80th Ave NW,,48.2431814024399,-122.3416999763893,,,0,,0,
1715,,272nd St NW & 72nd Ave NW,,48.24316332332686,-122.33468854202215,,,0,,0,
1717,,276th St NW & 78th Ave NW,,48.246786581770046,-122.33878858386483,,,0,,0,
172,,132nd St SE & 29th Dr SE,,47.87788748694442,-122.19310113013705,,,0,,0,
1720,,4th St & Quinn Ave,,48.05189987061806,-122.17153174342351,,,0,,0,
1721,,4th St & Columbia Ave,,48.051942150916965,-122.17495564275097,,,0,,0,
1724,,NE 45th St & Brooklyn Ave NE,,47.661369558510536,-122.31393980344296,,,0,,0,
1725,,NE 45th St & 9th Ave NE,,47.6613979596822,-122.31828757483076,,,0,,0,
1727,,56th St SE & 91st Ave SE,,47.94576916664925,-122.10983538157167,,,0,,0,
1728,,56th St SE & 95th Dr SE,,47.94572197497437,-122.10396995012538,,,0,,0,
173,,132nd St SE & 35th Ave SE,,47.87779436207322,-122.18499633360051,,,0,,0,
1730,,64th St NE & 60th Dr NE,,48.0539146023488,-122.14976235327028,,,0,,0,
1731,,64th St NE & 55th Dr NE,,48.05402594895488,-122.15748211327943,,,0,,0,
1732,,64th St NE & 67th Ave NE,,48.053743485832335,-122.14122731634365,,,0,,0,
174,,132nd St SE & 44th Ave SE,,47.87772542416553,-122.17291033757452,,,0,,0,
1740,,92nd St SE & 113th Dr SE,,47.91336681163256,-122.07869702840961,,,0,,0,
1741,,94th St SW & Airport Rd,,47.913441340701006,-122.27248114117897,,,0,,0,
1742,,Alderwood Mall Blvd & 28th Ave W,,47.82625688344234,-122.27113059859471,,,0,,0,
1743,,Alderwood Mall Blvd & 33rd Ave W,,47.82259258254154,-122.27795433318587,,,0,,0,
1744,,Beardslee Blvd & 110th Ave NE,,47.76350954869814,-122.1942635782735,,,0,,0,
1745,,Beardslee Blvd & NE 185th St,,47.76184307599496,-122.19742835626545,,,0,,0,
1746,,Beardslee Blvd & 104th Ave NE,,47.76068062296056,-122.20062654740416,,,0,,0,
1748,,Boeing & Gate E-67,,47.91434082184628,-122.27682539260725,,,0,,0,
175,,132nd St SE & Seattle Hill Rd,,47.877680033254514,-122.16552824847092,,,0,,0,
1755,,E Burke Ave & N Manhattan St,,48.20034952380173,-122.12157820614955,,,0,,0,
176,,132nd St SE & Hwy 527,,47.878068602105316,-122.20685716713123,,,0,,0,
1768,,Caspers St & 7th Ave N,,47.817868178773885,-122.3724460686762,,,0,,0,
1769,,Caspers St & 8th Ave N,,47.817857654552476,-122.36874512927614,,,0,,0,
1770,,Chennault Beach Rd & 47th Ave W,,47.895821834166384,-122.2975466530155,,,0,,0,
1773,,Dayton St & Durbin Dr,,47.809782541078526,-122.3728124792276,,,0,,0,
1774,,Dayton St & 5th Ave S,,47.809795722612634,-122.37792944974343,,,0,,0,
1775,,Dayton St & 6th Ave S,,47.80978842439704,-122.3752223701818,,,0,,0,
1776,,Dayton St & 8th Ave S,,47.809799621619256,-122.36991481568998,,,0,,0,
1777,,Dayton St & 9th Ave S,,47.80980590153671,-122.3674075970812,,,0,,0,
1778,,Dayton St & Sunset Ave,,47.80978906607996,-122.38287487657938,,,0,,0,
1785,,Front St & Hwy 525,,47.94884709392608,-122.30424817617703,,,0,,0,
1786,,Grove St & Alder Ave,,48.06136732054771,-122.17340931314777,,,0,,0,
1787,,Grove St & 47th Ave NE,,48.061317205247065,-122.16806223636924,,,0,,0,
1788,,Grove St & 51st Ave NE,,48.06123867894152,-122.16254266013941,,,0,,0,
1789,,Grove St & 54th Ave NE,,48.06112867613113,-122.15830249605861,,,0,,0,
179,,148th St SW & 48th Ave W,,47.86419395395619,-122.29794395679491,,,0,,0,
1790,,Grove St & 59th Ave NE,,48.06372455736786,-122.15168564862742,,,0,,0,
1791,,Grove St & 67th Ave NE,,48.06454375400198,-122.1414316416283,,,0,,0,
1794,,Grove St & 60th Dr NE,,48.06460002169201,-122.14898385055426,,,0,,0,
1798,,Hewitt Ave & Virginia Ave,,47.97924561148996,-122.1974920503746,,,0,,0,
18,,Marine Dr NE & 19th Ave NE,,48.053090723793616,-122.20535805556153,,,0,,0,
180,,148th St SW & 52nd Ave W,,47.86426883392187,-122.30300681832526,,,0,,0,
1801,,Harbour Pointe Blvd  SW & Harbour Reach Dr,,47.88716713258719,-122.29441974409768,,,0,,0,
1802,,Harbour Pointe Blvd  SW & Hwy 525,,47.8897223817456,-122.28604095300628,,,0,,0,
1803,,Harbour Pointe Blvd SW & Possession Wy,,47.886542157108835,-122.29847852327062,,,0,,0,
1805,,Lake View Dr & Cedar Rd,,48.01546039616284,-122.08416313970568,,,0,,0,
1806,,Lakewood Rd & McRae Rd NW,,48.156744060087455,-122.26167375864352,,,0,,0,
1807,,Lakewood Rd & 184th St NW,,48.16373051441418,-122.3365194462677,,,0,,0,
1808,,Lakewood Rd & 31st Dr NW,,48.155698073706915,-122.27496636722503,,,0,,0,
1809,,Lakewood Rd & 53rd Dr NW,,48.15599001870218,-122.30709268385516,,,0,,0,
181,,148th St SW & Hwy 99,,47.86406387125008,-122.2840579548252,,,0,,0,
1810,,Lakewood Rd & 60th Ave NW,,48.15896697413377,-122.31376339490387,,,0,,0,
1811,,Lakewood Rd & 84th Dr NW,,48.16734612421278,-122.3462077990254,,,0,,0,
1812,,Lakewood Rd & 176th Pl NW,,48.15681763074992,-122.24528059959208,,,0,,0,
1813,,Lakewood Rd & 65th Dr NW,,48.16104300995778,-122.32687579602947,,,0,,0,
1814,,Lakewood Rd & 52nd Ave NW,,48.15586115729851,-122.2972175200594,,,0,,0,
1815,,Logan Rd & 14th Pl W,,47.80908256382742,-122.25239894202129,,,0,,0,
1816,,Lundeen Pkwy & Callow Rd,,48.01795237571999,-122.09095823488677,,,0,,0,
1817,,Lundeen Pkwy & 101st Ave NE,,48.01793514006373,-122.09502398650437,,,0,,0,
1819,,Main St & 12th Ave N,,47.810594207404115,-122.35973357700777,,,0,,0,
182,,152nd St NE & 43rd Ave NE,,48.133883614232374,-122.17231820097776,,,0,,0,
1821,,Main St & 84th Ave W,,47.80750093101644,-122.34739506188602,,,0,,0,
1822,,Main St & 86th Pl W,,47.81061125012194,-122.3508400113083,,,0,,0,
1823,,Main St & 9th Ave N,,47.8106235689984,-122.36736666874711,,,0,,0,
1824,,W Main St & N Blakely St,,47.85531411272024,-121.97252916163113,,,0,,0,
1826,,W Main St & N Kelsey St,,47.8537427929234,-121.97750099619613,,,0,,0,
1827,,Main St & Maplewood Dr,,47.81060575437534,-122.354963275573,,,0,,0,
1828,,Main St & Olympic Ave,,47.810603761023955,-122.36209475808224,,,0,,0,
183,,152nd St NE & Smokey Point Blvd,,48.13407850402285,-122.18284971525675,,,0,,0,
1830,,Main St & Hwy 2,,47.86262412791502,-121.80751017973567,,,0,,0,
1831,,E Main St & Woods St,,47.85678939038981,-121.96781972290172,,,0,,0,
1833,,Market Pl & 91st Ave NE,,47.99799235541026,-122.10783766953807,,,0,,0,
1834,,Monte Villa Pkwy & 39th Ave SE,,47.77825863644585,-122.18221528882196,,,0,,0,
1836,,Monte Villa Pkwy & 35th Ave SE,,47.778843431285395,-122.18516341680635,,,0,,0,
1839,,E Pioneer St & S Alder Ave,,48.07992528230411,-121.96431282995307,,,0,,0,
184,,152nd St NE & 51st Ave NE,,48.13374932041678,-122.16262800429227,,,0,,0,
1840,,Puget Dr & Olympic View Dr,,47.821596570772314,-122.36495144843929,,,0,,0,
1845,,Seeman St & Givens Ave,,48.255379056670165,-121.60324185171378,,,0,,0,
1848,,Edmonds Wy & Paradise Ln,,47.795214407609436,-122.3736129277236,,,0,,0,
1849,,Edmonds Wy & 100th Ave W,,47.790732310955384,-122.367421096021,,,0,,0,
185,,152nd St NE & 40th Ave NE,,48.133949247651415,-122.17585874802376,,,0,,0,
1850,,Edmonds Wy & 232nd St SW,,47.78984249368559,-122.3560547797988,,,0,,0,
1851,,Edmonds Wy & 238th St SW,,47.78441001465243,-122.35301073462968,,,0,,0,
1853,,Edmonds Wy & 95th Pl W,,47.792098365559774,-122.35940069075401,,,0,,0,
1859,,Hwy 520 & Evergreen Point Fwy St,,47.637234176165535,-122.2375719229747,,,0,,0,
186,,152nd St NE & 47th Ave NE,,48.133824574855225,-122.16678315052988,,,0,,0,
1860,,Hwy 520 & Montlake Fwy Station,,47.644387550690226,-122.30448524293617,,,0,,0,
1862,,Hwy 530 & Ramstad Rd (farside),,48.26855099993562,-121.96072049255703,,,0,,0,
1863,,Hwy 530 & Boulder Creek Dr,,48.27818037475921,-121.77953628753261,,,0,,0,
1864,,Hwy 530 & 379th Ave NE,,48.26884172837552,-121.71896470000384,,,0,,0,
1865,,Hwy 530 & Powerline Rd,,48.2632108917534,-121.63308911750455,,,0,,0,
1866,,Hwy 530 & 355th Ave NE,,48.27718223817561,-121.75073619472418,,,0,,0,
1867,,Hwy 530 & 119th Ave NE,,48.23463637255168,-122.06755687840803,,,0,,0,
1868,,Hwy 530 & 171st Ave NE(Cicero Pk,,48.273491450759884,-121.99928946141904,,,0,,0,
1869,,Hwy 530 & N Brooks Creek Rd,,48.27362399859365,-121.91511474821851,,,0,,0,
187,,164th St SW & 13th Ave W,,47.84960562780424,-122.25083698619787,,,0,,0,
1870,,Hwy 530 & 294th St NE,,48.264987312619404,-122.01994766619694,,,0,,0,
1871,,Hwy 530 & 411th Ave NE,,48.26928923987444,-121.6768458219943,,,0,,0,
1872,,Hwy 530 & Hillis Rd,,48.26831647625748,-122.01050580217533,,,0,,0,
1873,,Hwy 530 & Seeman St,,48.25554701624028,-121.60885611588229,,,0,,0,
1874,,Hwy 530 & Squire Creek Rd,,48.27064162577184,-121.67033474504667,,,0,,0,
1875,,Hwy 530 & 387th Ave NE,,48.26879700812822,-121.70722408684115,,,0,,0,
1877,,Hwy 530 & E Post Rd,,48.27720452041592,-121.81332303751641,,,0,,0,
1878,,Hwy 530 & 139th Ave NE,,48.24774225671386,-122.04161293147473,,,0,,0,
1879,,Hwy 530 & 310th St NE,,48.27693427641734,-121.79757991341606,,,0,,0,
188,,W Main St & 170th Dr SE,,47.84864849673209,-122.00271132792331,,,0,,0,
1880,,Hwy 530 & Lake Cavanaugh Rd,,48.27030108201009,-121.93453031176395,,,0,,0,
1881,,Hwy 530 & Ramstad Rd (nearside),,48.26913348221538,-121.95384261450064,,,0,,0,
1882,,Hwy 530 & Whitman Rd,,48.27152780782182,-121.88837756788823,,,0,,0,
1883,,Hwy 530 & 171st Ave NE (farside),,48.27058053837507,-122.00409384995382,,,0,,0,
1884,,Hwy 530 & 179th Ave NE,,48.27370048540981,-121.98421790609264,,,0,,0,
1885,,Hwy 530 & 115th Ave NE,,48.23172197869401,-122.07622753403301,,,0,,0,
1887,,Hwy 530 & French Creek Rd,,48.27861516590965,-121.7645205333193,,,0,,0,
1888,,Hwy 530 & Tom Creek Rd,,48.27003375831797,-121.72931690450842,,,0,,0,
1889,,Hwy 530 & Oso Loop Rd,,48.27229152135108,-121.90012192201613,,,0,,0,
189,,164th St SW & Alderwood Mall Pkwy,,47.84985120287616,-122.27091383761483,,,0,,0,
1891,,Hwy 530 & 223rd Ave NE,,48.27139282428184,-121.9281350469258,,,0,,0,
1893,,Hwy 92 & 44th St NE (nearside),,48.039618361650916,-122.04581583432169,,,0,,0,
1894,,Hwy 92 & 127th Dr NE,,48.03210976571895,-122.05939452701892,,,0,,0,
1895,,Hwy 92 & 161st Ave NE,,48.06718701348199,-122.01578960197607,,,0,,0,
1896,,Hwy 92 & 44th St NE,,48.03599081813952,-122.04998212535624,,,0,,0,
1897,,Hwy 92 & 84th St NE,,48.071558356578464,-122.01008091099239,,,0,,0,
1898,,Hwy 92 & 64th St NE,,48.05785843615247,-122.0262499087884,,,0,,0,
1899,,Hwy 92 & 75th St NE,,48.06408632521643,-122.01922790961616,,,0,,0,
19,,Marine Dr NE & 21st Dr NE,,48.054268768972584,-122.20176192595318,,,0,,0,
190,,164th St SE & 3rd Ave SE,,47.849167638226284,-122.22714211173391,,,0,,0,
1900,,Hwy 92 & 147th Ave NE,,48.05255119758138,-122.03197079317525,,,0,,0,
1902,,Hwy 92 & Crooked Mile Rd,,48.07919256982614,-122.00135636315805,,,0,,0,
1904,,W Stanley St & Portage Ave,,48.08337878836027,-121.97466690299457,,,0,,0,
1905,,Grant Ln & Stevens Wy,,47.65512411492743,-122.31092113310213,,,0,,0,
1906,,Stevens Wy & Garfield Ln,,47.65220227307655,-122.30871978682711,,,0,,0,
1907,,Stewart St & 4th Ave,,47.61217806962919,-122.3390229769217,,,0,,0,
1908,,Stewart St & 7th Ave,,47.61441001168093,-122.33612325549568,,,0,,0,
1909,,Stewart St & 9th Ave,,47.61576297455832,-122.33437396973798,,,0,,0,
191,,164th St SW & 6th Ave W,,47.84942500192103,-122.24082357385973,,,0,,0,
1911,,Stewart St & Yale Ave,,47.618167566295085,-122.33126388623954,,,0,,0,
1912,,Hwy 2 & Maple St,,47.85946608183193,-121.82595844319549,,,0,,0,
1913,,Hwy 2 & 383rd Ave SE,,47.865004285456536,-121.71771692003314,,,0,,0,
1914,,Hwy 2 & 1st St,,47.85770993092226,-121.70291488783442,,,0,,0,
1915,,Hwy 2 & 179th Ave SE,,47.86592430632355,-121.99113051032299,,,0,,0,
1916,,Hwy 2 & 368th Dr SE,,47.86730202283047,-121.7383606388621,,,0,,0,
1917,,Hwy 2 & Calhoun Rd,,47.85593323501957,-121.92795607090977,,,0,,0,
1918,,Hwy 2 & Chain Lake Rd,,47.85945549502054,-121.9707421488054,,,0,,0,
192,,164th St SE & 9th Ave SE,,47.84936438741571,-122.21998225211244,,,0,,0,
1920,,Hwy 2 & N Kelsey St,,47.8611632996479,-121.97819051204398,,,0,,0,
1921,,Hwy 2 & Rice Rd,,47.86794044317293,-121.77840391247328,,,0,,0,
1922,,Hwy 2 & Roosevelt Rd (East),,47.87270795846915,-122.00828337955589,,,0,,0,
1923,,Hwy 2 & Woods Creek Rd,,47.85835292835383,-121.96580887197324,,,0,,0,
1925,,Hwy 2 & 364th Ave SE,,47.86728814816605,-121.74425205595789,,,0,,0,
1926,,Hwy 2 & Roosevelt Rd (W),,47.9005591293239,-122.03648224047878,,,0,,0,
1927,,Hwy 2 & Westwick Rd,,47.90540358179428,-122.04300906918479,,,0,,0,
1928,,Monroe P&R - Bay 1,,47.86790798574263,-121.99531881757575,,,0,,0,
1929,,Sultan P&R - Bay 1,,47.86359446633232,-121.80204862994476,,,0,,0,
193,,164th St SW & Larch Wy,,47.84950323557667,-122.24648372881708,,,0,,0,
1930,,Walnut St & 10th Ave S,,47.807362549817356,-122.36456343482834,,,0,,0,
1932,,S Kentucky Ave & E Pioneer St,,48.07992857559017,-121.9667595664813,,,0,,0,
1933,,S Alder Ave & E Pioneer St,,48.080409038579084,-121.9639102039502,,,0,,0,
1934,,S Alder Ave & E Stanley St,,48.083244195018395,-121.96388235253912,,,0,,0,
194,,164th St SW & North Rd,,47.849289720526144,-122.23532076340129,,,0,,0,
195,,164th St SW & Spruce Wy,,47.8499267666822,-122.28424857124875,,,0,,0,
197,,Swamp Creek P&R - Bay 2,,47.849999144188175,-122.27636424461623,,,0,,0,
198,,168th St SE & 23rd Ave SE,,47.8455547629482,-122.20141684875428,,,0,,0,
199,,168th St SE & 25th Ave SE,,47.845532865780946,-122.19820259377312,,,0,,0,
2,,1st St & High St,,47.86868409171542,-121.82083408074891,,,0,,0,
200,,168th St SE & 28th Dr SE,,47.845454500740814,-122.19419668007781,,,0,,0,
202,,168th St SW & 52nd Ave W,,47.846489145568285,-122.30456749910812,,,0,,0,
203,,168th St SE & 30th Dr SE,,47.84537583893821,-122.19112758282401,,,0,,0,
2035,,Lynnwood Transit Center &,,47.81620698997868,-122.29581034802719,,,0,,0,
204,,168th St SW & 60th Ave W,,47.8465075708918,-122.315451840906,,,0,,0,
205,,172nd St NE & 16th Dr NE,,48.15179739584948,-122.20840199865742,,,0,,0,
206,,172nd St NE & 11th Ave NE,,48.1517264734586,-122.21500500063657,,,0,,0,
207,,172nd St NE & 27th Ave NE,,48.152113650866866,-122.19333629173897,,,0,,0,
208,,172nd St NE & Smokey Point Blvd,,48.15235802050679,-122.18189882674184,,,0,,0,
2085,,Hwy 527 & Mill Creek Blvd,,47.855176396726314,-122.21823943989581,,,0,,0,
2089,,Hwy 99 & N 205th St,,47.77750102993979,-122.3463403297332,,,0,,0,
209,,172nd St NE & 3rd Ave NE,,48.151912529442534,-122.22775686168436,,,0,,0,
2090,,Smokey Point Blvd & 169th Pl NE,,48.1493963982449,-122.18311185654792,,,0,,0,
2091,,McCollum Park P&R - Bay 1,,47.879129181973646,-122.22075918625973,,,0,,0,
2092,,McCollum Park P&R - Bay 2,,47.879288950608725,-122.22069825599333,,,0,,0,
2097,,Mountlake Terrace TC - Bay 1,,47.78523578726792,-122.3150107517801,,,0,,0,
2098,,Mountlake Terrace TC - Bay 2,,47.78525497397746,-122.3150112999693,,,0,,0,
210,,176th St SW & 60th Ave W,,47.83900809800799,-122.3139869650101,,,0,,0,
2103,,Mariner P&R - Bay 1,,47.879791716985906,-122.23880839288053,,,0,,0,
2104,,Mariner P&R - Bay 2,,47.879528432088016,-122.23881347183774,,,0,,0,
2105,,Mariner P&R - Bay 3,,47.879618934707956,-122.23881185327892,,,0,,0,
2106,,Mariner P&R - Bay 4,,47.87970943732705,-122.23881023471444,,,0,,0,
2108,,Lynnwood Transit Center - Bay B5,,47.816089961992986,-122.29574191166306,,,0,,0,
2109,,Lynnwood Transit Center - Bay C1,,47.81595991465087,-122.29711826749848,,,0,,0,
211,,176th St SW & 62nd Ave W,,47.83912579811679,-122.31675162673304,,,0,,0,
2110,,Lynnwood Transit Center - Bay C2,,47.815959020648975,-122.29676000555263,,,0,,0,
2111,,Lynnwood Transit Center - Bay C3,,47.81595496762345,-122.29643422143998,,,0,,0,
2112,,Lynnwood Transit Center - Bay C5,,47.81595223652651,-122.29579094685211,,,0,,0,
2113,,Lynnwood Transit Center - Bay D1,,47.815856487987524,-122.29705835433596,,,0,,0,
2114,,Lynnwood Transit Center - Bay D2,,47.81585042462848,-122.29667552197867,,,0,,0,
2115,,Lynnwood Transit Center - Bay A2,,47.8162112414904,-122.29676305642055,,,0,,0,
2119,,Lynnwood Transit Center - Bay B3,,47.81609300605813,-122.29636077149546,,,0,,0,
212,,176th St SW & 64th Ave W,,47.83924323134439,-122.31932080453191,,,0,,0,
2120,,Lynnwood Transit Center - Bay B4,,47.816091744962264,-122.29603099451727,,,0,,0,
2124,,Edmonds CC Transit Center - Bay 2,,47.815896776718134,-122.32510379126353,,,0,,0,
2125,,Edmonds CC Transit Center - Bay 3,,47.815895288778705,-122.32521773350219,,,0,,0,
2126,,Edmonds CC Transit Center - Bay 4,,47.81589475734422,-122.32525842715722,,,0,,0,
2127,,Edmonds CC Transit Center - Bay 5,,47.81589571391585,-122.32518517857753,,,0,,0,
2128,,Edmonds CC Transit Center - Bay 6,,47.815897733190646,-122.32503054267814,,,0,,0,
213,,176th St SW & 53rd Pl W,,47.83904486068551,-122.30562269314193,,,0,,0,
2131,,Ash Way P&R - Bay 1,,47.85276058822436,-122.25841490990865,,,0,,0,
2132,,Canyon Park P&R - Bay 1,,47.793720567301946,-122.21111699634625,,,0,,0,
2134,,Canyon Park P&R - Bay 2,,47.79385158893371,-122.2113931043497,,,0,,0,
2137,,132nd St SE & 16th Ave SE,,47.878310576108,-122.21135907185098,,,0,,0,
2143,,209th St NE & Jensen Farm Ln,,48.18295714841717,-122.12247112066365,,,0,,0,
2144,,Eastmont P&R - Bay 1,,47.91528510992511,-122.20471298146029,,,0,,0,
215,,180th St SE & Hwy 527,,47.83460042250311,-122.20967931100148,,,0,,0,
2150,,I-405 & Brickyard Fwy Station,,47.743769281146015,-122.18607510548982,,,0,,0,
2151,,I-405 & Brickyard Fwy Station,,47.741770609826176,-122.18790915045558,,,0,,0,
2157,,4th Ave S & S Royal Brougham Wy,,47.59319961671467,-122.32891180467573,,,0,,0,
2158,,I-5 & NE 145th St Fwy Statio,,47.7327391348785,-122.32375051808563,,,0,,0,
216,,188th St SW & 40th Ave W,,47.828092479740604,-122.28663811074462,,,0,,0,
2162,,Ash Way P&R - Bay 2,,47.85283576222704,-122.25832328255161,,,0,,0,
2163,,Ash Way P&R - Bay 3,,47.852916519630895,-122.25822366106709,,,0,,0,
2165,,I-5 & NE 145th St Fwy Statio,,47.73253522168366,-122.32508590182326,,,0,,0,
2166,,I-5 & NE 45th St Fwy Station,,47.66054409642637,-122.32299159996404,,,0,,0,
2167,,Lynnwood Transit Center - Bay B1,,47.81609774496692,-122.29706109700881,,,0,,0,
2168,,Lynnwood Transit Center - Bay B2,,47.81609431832874,-122.2966864790796,,,0,,0,
2169,,Ash Way & 164th St SW,,47.85012003516397,-122.26061935412966,,,0,,0,
217,,188th St SW & 43rd Ave W,,47.82812238967874,-122.29096322127943,,,0,,0,
2171,,48th Ave W & 200th St SW,,47.82055915278238,-122.29768379721921,,,0,,0,
2177,,Lynnwood Transit Center - Bay C4,,47.81595375884532,-122.29610037593854,,,0,,0,
218,,188th St SW & 52nd Ave W,,47.82819454962099,-122.30288350550413,,,0,,0,
2188,,Brier Rd & 228th St SW,,47.791041727361595,-122.27442648496084,,,0,,0,
219,,188th St NE & 59th Ave NE,,48.1665211433783,-122.15025676021656,,,0,,0,
2194,,27th Ave NE & Marine Dr,,48.05642127915646,-122.19482964457077,,,0,,0,
2195,,27th Ave NE & 74th St NE,,48.0636712616888,-122.19477559492775,,,0,,0,
2196,,27th Ave NE & 81st St NE,,48.06944670389669,-122.19467442566047,,,0,,0,
2198,,27th Ave NE & 88th St NE,,48.075605025209484,-122.19488609446763,,,0,,0,
2199,,27th Ave NE & 81st St NE,,48.06950914033586,-122.19495833774182,,,0,,0,
22,,Seeman St & Fullerton Ave,,48.255126502336616,-121.60820116046118,,,0,,0,
2200,,27th Ave NE & 74th St NE,,48.06300431453162,-122.19506476123163,,,0,,0,
2201,,64th St NW & Joseph Charles Jr Loop,,48.05378249912861,-122.26763615605249,,,0,,0,
2202,,Totem Beach Rd & 64th St NW,,48.0554206004955,-122.27082670886412,,,0,,0,
2203,,Totem Beach Rd & Alphonsus Bob Loop Rd,,48.05982164181064,-122.27517032810731,,,0,,0,
2204,,Totem Beach Rd & Senior Center Driveway,,48.061818497670465,-122.27772528987317,,,0,,0,
2205,,76th Pl NW & Marine Dr,,48.065626930302656,-122.27685430026287,,,0,,0,
2207,,220th St SE & 17th Ave SE,,47.79835904610823,-122.21027581106233,,,0,,0,
2208,,20th Ave SE & 220th St SE,,47.7988168699592,-122.20572612893456,,,0,,0,
2209,,223rd St SE & 23rd Dr SE,,47.796084719434425,-122.20171480608577,,,0,,0,
2211,,29th Dr SE & Panasonic Avionics,,47.792644365470174,-122.19615128306832,,,0,,0,
2212,,228th St SE & 35th Ave SE,,47.79080151623461,-122.1867242787519,,,0,,0,
2213,,35th Ave SE & 228th St SE,,47.79091448405103,-122.18644648007846,,,0,,0,
2214,,35th Ave SE & Monte Villa Pkwy,,47.779699967501195,-122.18599932529405,,,0,,0,
2215,,120th Ave NE & North Creek Pkwy N,,47.77445561779118,-122.18035923153377,,,0,,0,
2216,,120th Ave NE & North Creek Pkwy N,,47.77480694556913,-122.18009583068284,,,0,,0,
2219,,NE 185th St & 103rd Ave NE,,47.76189938515105,-122.20211448612564,,,0,,0,
222,,188th St SW & 36th Ave W,,47.828065605936175,-122.28206064261148,,,0,,0,
2220,,NE 185th St & Ross Rd,,47.761863087751884,-122.19988100123055,,,0,,0,
2221,,228th St SE & 27th Ave SE,,47.79115604885106,-122.19679573032327,,,0,,0,
2222,,228th St SE & 29th Dr SE,,47.79134697722525,-122.19665020349929,,,0,,0,
2225,,20th St NE & Main St,,48.01543053894137,-122.06360378927043,,,0,,0,
2226,,56th St SE & 98th Dr SE,,47.945531460310136,-122.10260633114964,,,0,,0,
2227,,214th St SE & Hwy 527,,47.803720528333955,-122.20791120374898,,,0,,0,
2228,,29th Dr SE & Panasonic Avionics,,47.79265200889392,-122.19574052062595,,,0,,0,
2229,,UW Bothell & Cascadia College,,47.76160443532884,-122.19307091787638,,,0,,0,
2230,,UW Bothell & Library,,47.760816931632576,-122.19127731017238,,,0,,0,
2231,,Village Wy & W Main St,,47.85072916637943,-121.98627760517387,,,0,,0,
2232,,UW Bothell & Library,,47.76092125236518,-122.1910360534325,,,0,,0,
2233,,NE 195th St & North Creek Pkwy,,47.76896283717393,-122.18320997118519,,,0,,0,
2234,,NE 195th St & 120th Ave NE,,47.76916417844175,-122.18218216959329,,,0,,0,
2237,,Hwy 99 & 224th St SW,,47.796161138973574,-122.3340175421323,,,0,,0,
2239,,196th St SW & Alderwood Mall Pkwy,,47.820700295075106,-122.27015405064972,,,0,,0,
224,,188th St NE & 63rd Ave NE,,48.16643254290351,-122.1450535722404,,,0,,0,
2240,,196th St SW & 24th Ave W,,47.82080108390841,-122.26627696928743,,,0,,0,
2248,,Hwy 530 & Jim Creek Rd,,48.236595020487854,-122.06129611644191,,,0,,0,
2249,,132nd St SE & Hwy 527,,47.87816512545246,-122.20703905788946,,,0,,0,
226,,194th St SW & 48th Ave W,,47.82274837069688,-122.29759501727841,,,0,,0,
2263,,I-5 & 4th St,,48.051820794780184,-122.18343383173784,,,0,,0,
227,,194th St SW & 44th Ave W,,47.82266670048606,-122.29304903080278,,,0,,0,
2284,,212th St SW & 78th Ave W,,47.80700355851989,-122.33897146909007,,,0,,0,
2290,,5th Ave & Jefferson St,,47.60311345364549,-122.32879939385491,,,0,,0,
23,,State Ave & 92nd St NE,,48.07948207427611,-122.1750748225579,,,0,,0,
230,,196th St SW & 64th Ave W,,47.82112750518978,-122.31928583227813,,,0,,0,
231,,196th St SW & 68th Ave W,,47.82120791078772,-122.32447905695322,,,0,,0,
232,,196th St SW & 74th Ave W,,47.82133926733356,-122.33496650492819,,,0,,0,
2325,,NE 195th St & Ross Rd,,47.76799454849032,-122.19110322845773,,,0,,0,
2326,,Boeing & Gate E-68,,47.91768481875037,-122.27604583631413,,,0,,0,
2327,,Boeing & Gate E-72,,47.92582451707554,-122.27873691638703,,,0,,0,
2328,,Boeing & Gate E-84,,47.93231071393449,-122.27861221312679,,,0,,0,
2329,,Boeing & Gate E-82,,47.93085791441375,-122.27073821549494,,,0,,0,
233,,196th St SW & 80th Ave W,,47.82134958416163,-122.34063817581801,,,0,,0,
2330,,Boeing & Gate E-78,,47.93165849276596,-122.26592980783245,,,0,,0,
234,,196th St SW & 84th Ave W,,47.8213767117636,-122.34626149178057,,,0,,0,
2340,,27th Ave NE & 88th St NE,,48.07623335491664,-122.19461629241135,,,0,,0,
2342,,Everett Station - Bay B2,,47.97444579216358,-122.19716524819195,,,0,,0,
2344,,Everett Station - Bay B4,,47.97425753878271,-122.19708678082768,,,0,,0,
2345,,Everett Station - Bay C1,,47.97481748796449,-122.19772630326665,,,0,,0,
2346,,Everett Station - Bay C2,,47.97463745792409,-122.19764805041774,,,0,,0,
2347,,Everett Station - Bay C3,,47.97443290476905,-122.19755690085543,,,0,,0,
2349,,2nd Ave Ext S & S Washington St,,47.60066113451575,-122.33116542104263,,,0,,0,
235,,196th St SW & Heinz Pl,,47.821277363859195,-122.33049032421074,,,0,,0,
2350,,I-405 & NE 195th St Flyer Stop,,47.76914290218886,-122.18860761901732,,,0,,0,
2354,,99th St NE & 31st Ave NE,,48.08545616556786,-122.18863989337295,,,0,,0,
2355,,Wetmore Ave & Wall St,,47.97719251220586,-122.20731578414309,,,0,,0,
2356,,Pacific Ave & Rockefeller Ave,,47.97667626376962,-122.20555025796837,,,0,,0,
2358,,Quil Ceda Blvd & 31st St NE,,48.07747113112827,-122.1868589225078,,,0,,0,
2359,,Pacific Ave & Rockefeller Ave,,47.97649842903721,-122.20483093481995,,,0,,0,
236,,196th St SW & Scriber Lake Rd,,47.821061810939945,-122.31060802836578,,,0,,0,
2364,,Broadway & 38th St,,47.967138714129625,-122.20085095357778,,,0,,0,
2365,,Broadway & 33rd St,,47.97363876394504,-122.2011536468823,,,0,,0,
2366,,Broadway & 38th St,,47.96713369598834,-122.20127133738302,,,0,,0,
2367,,Broadway & 34th St,,47.972918300077886,-122.2015592218976,,,0,,0,
2368,,Quil Ceda Blvd & Home Depot,,48.08029010804329,-122.18566042323533,,,0,,0,
237,,196th St SW & Hwy 99,,47.82107206898832,-122.31637733857437,,,0,,0,
238,,196th St SW & 86th Ave W,,47.82134613550075,-122.34939553614142,,,0,,0,
239,,196th St SW & 58th Pl W,,47.82106826668309,-122.31244029181434,,,0,,0,
240,,2nd St & Ash Ave,,48.0499129888218,-122.18292591607208,,,0,,0,
2405,,Hwy 99 & N 200th St,,47.77486877343476,-122.34592186096997,,,0,,0,
2406,,228th St SW & Meridian Ave S,,47.79138574982257,-122.23399931485463,,,0,,0,
2407,,228th St SW & 4th Ave W,,47.791441103412815,-122.23775232369597,,,0,,0,
2408,,4th Ave W & 228th St SW,,47.79317593962089,-122.23826318115513,,,0,,0,
2409,,4th Ave W & 224th St SW,,47.79517478499132,-122.23826444296546,,,0,,0,
241,,Second St & Ave A,,47.912772951915954,-122.09412314678583,,,0,,0,
2410,,4th Ave W & 224th St SW (nearside),,47.79575795714061,-122.2385569524293,,,0,,0,
2411,,4th Ave W & 224th St SW (farside),,47.79483129638214,-122.23854811494903,,,0,,0,
2418,,Broadway St & E Gilman Ave,,48.19936961957492,-122.12534713197225,,,0,,0,
242,,Second St & Ave C,,47.912843798084104,-122.0968981212755,,,0,,0,
2421,,High St & 7th St,,47.86925316655139,-121.81332311659233,,,0,,0,
2422,,Lynnwood Transit Center - Bay D3,,47.81584631924741,-122.29635380794619,,,0,,0,
2423,,47th Pl W & 106th St SW,,47.9025405693045,-122.29661134428221,,,0,,0,
2424,,47th Pl W & 106th St SW,,47.90228159569747,-122.2969220780176,,,0,,0,
2425,,196th St SW & 30th Pl W,,47.820745672914676,-122.27395375952172,,,0,,0,
2426,,196th St SW & 30th Pl W,,47.820937049127146,-122.27421556761703,,,0,,0,
2427,,196th St SW & Alderwood Mall Pkwy,,47.820918890673575,-122.27130412829983,,,0,,0,
2428,,196th St SW & 40th Ave W,,47.82081127219156,-122.28674333557929,,,0,,0,
2429,,196th St SW & 37th Ave W,,47.82099750487012,-122.28373990069902,,,0,,0,
243,,Second St & Maple Ave,,47.91262167195624,-122.08867902822507,,,0,,0,
2430,,Alderwood Mall Pkwy & 196th St SW,,47.82122628815442,-122.27084446301052,,,0,,0,
2431,,Alderwood Mall Pkwy & 184th St SW,,47.831725219987135,-122.2684400304407,,,0,,0,
2432,,Alderwood Mall Pkwy & Maple Rd,,47.83596809127087,-122.27162408891755,,,0,,0,
2433,,Alderwood Mall Pkwy & 177th Pl SW,,47.83564040365643,-122.271517254379,,,0,,0,
2434,,188th St SW & 48th Ave W,,47.82815962587726,-122.29748733599793,,,0,,0,
2435,,188th St SW & 46th Ave W,,47.828142805043846,-122.29494604007661,,,0,,0,
2436,,188th St SW & 46th Ave W,,47.82833348888701,-122.29547261461406,,,0,,0,
2437,,188th St SW & 44th Ave W,,47.828323338293764,-122.293049583305,,,0,,0,
244,,Second St & Pine Ave,,47.91255889437014,-122.0859001988333,,,0,,0,
2440,,Hewitt Ave & Lombard Ave,,47.97932543441707,-122.20275389647064,,,0,,0,
2441,,Hewitt Ave & Rockefeller Ave,,47.97935723171299,-122.20559696261141,,,0,,0,
2442,,148th St SW & 35th Ave W,,47.86406237570206,-122.28028072339609,,,0,,0,
2443,,148th St SW & 35th Ave W,,47.86425501625516,-122.28022498680996,,,0,,0,
2444,,148th St SW & 29th Ave W,,47.86407930120369,-122.27242122804374,,,0,,0,
2445,,148th St SW & Admiralty Wy,,47.86427851621649,-122.27293202076841,,,0,,0,
2446,,148th St SW & Manor Wy,,47.864024442377136,-122.26849584096597,,,0,,0,
2447,,148th St SW & Manor Wy,,47.864225648771566,-122.26906779234498,,,0,,0,
2448,,Jefferson Wy & 21st Ave W,,47.8619647785488,-122.26042837721995,,,0,,0,
2449,,Jefferson Wy & 19th Ave W,,47.86211082754585,-122.25927118045661,,,0,,0,
245,,20th St NE & 112th Dr NE,,48.015362379989774,-122.07931430516908,,,0,,0,
2450,,18th Ave W & 151st Pl SW,,47.86069942904514,-122.25767591382083,,,0,,0,
2451,,18th Ave W & 152nd St SW,,47.860133773379864,-122.25796185383815,,,0,,0,
2452,,18th Ave W & Oak Rd,,47.85720346211911,-122.25767753931572,,,0,,0,
2453,,18th Ave W & Oak Rd,,47.85728488055884,-122.25796496429527,,,0,,0,
2454,,18th Ave W & Ash Wy,,47.855434920859665,-122.25767778659451,,,0,,0,
2455,,18th Ave W & Ash Wy,,47.85545060652714,-122.25795931961834,,,0,,0,
2456,,134th St SW & Ash Wy,,47.87677593241867,-122.2443508415596,,,0,,0,
2457,,134th St SW & Ash Wy,,47.87697144244313,-122.24383856724053,,,0,,0,
2458,,Alderwood Mall Pkwy & 164th St SW,,47.84895874776417,-122.27101941755807,,,0,,0,
2459,,Alderwood Mall Pkwy & 164th St SW,,47.84894419866185,-122.27130415437811,,,0,,0,
2460,,Smokey Point Blvd & 174th Pl NE,,48.15373728484497,-122.18282000328057,,,0,,0,
2461,,88th St NE & 36th Ave NE,,48.07559646606188,-122.18213750299977,,,0,,0,
2464,,4th St & Cedar Ave,,48.05170500773777,-122.18022065481645,,,0,,0,
2465,,4th St & Beach Ave,,48.052000532479646,-122.18167192172574,,,0,,0,
2466,,Wetmore Ave & Wall St,,47.97774124513278,-122.20705678033548,,,0,,0,
2467,,Wetmore Ave & Hewitt Ave,,47.97913375831617,-122.20708563869775,,,0,,0,
2471,,Lakewood Rd & Marine Dr,,48.16695540511655,-122.35732013969161,,,0,,0,
2472,,Marine Dr & Lakewood Rd,,48.16801115061452,-122.35772438582323,,,0,,0,
2473,,Smokey Point Blvd & 116th St NE,,48.10029061208125,-122.17521127034001,,,0,,0,
2474,,Smokey Point Blvd & 113th Pl NE,,48.0976715243098,-122.17456597539665,,,0,,0,
2475,,120th Ave NE & NE 195th St,,47.76980121366905,-122.18001468049057,,,0,,0,
2476,,120th Ave NE & NE 195th St,,47.76985815842857,-122.18030085867325,,,0,,0,
2477,,Smokey Point Blvd & 136th St NE,,48.11791390072541,-122.18184081217193,,,0,,0,
2478,,Smokey Point Blvd & 134th St NE,,48.116855169415885,-122.18117435737501,,,0,,0,
2479,,Smokey Point Blvd & 106th Pl NE,,48.09182579816988,-122.17317794031267,,,0,,0,
248,,20th St NE & 116th Ave NE,,48.01553362042618,-122.07414096846529,,,0,,0,
2480,,Smokey Point Blvd & 105th Pl NE,,48.09099201677052,-122.17367192130544,,,0,,0,
2482,,Smokey Point Blvd & 186th Pl NE,,48.16577982617148,-122.18485703975155,,,0,,0,
2483,,52nd Ave W & Beverly Park Rd,,47.86575404508953,-122.303505351337,,,0,,0,
2484,,Airport Rd & W Casino Rd,,47.92009789106383,-122.27189133295023,,,0,,0,
2487,,164th St SE & Mill Creek Blvd,,47.8494481710654,-122.22053440794927,,,0,,0,
249,,20th St NE & 118th Ave NE,,48.01552562023946,-122.07132933552163,,,0,,0,
2490,,10th St & Ash Ave,,48.05729093197745,-122.18387963958297,,,0,,0,
2491,,64th St NE & 83rd Ave NE,,48.0534534504796,-122.11958267965527,,,0,,0,
2492,,64th St NE & 76th Ave NE,,48.05358579225953,-122.12853779739487,,,0,,0,
2493,,64th St NE & 73rd Ave NE,,48.05361056082176,-122.13241114091807,,,0,,0,
2494,,64th St NE & 71st Ave NE,,48.05362435908541,-122.1353068312699,,,0,,0,
2495,,64th St NE & 83rd Ave NE,,48.05364499970127,-122.11961608152961,,,0,,0,
2496,,64th St NE & 76th Dr NE,,48.05378242417522,-122.12884944459334,,,0,,0,
2497,,64th St NE & 73rd Ave NE,,48.05380137623749,-122.13275128315652,,,0,,0,
2498,,64th St NE & 71st Ave NE,,48.05380675739265,-122.13566312998228,,,0,,0,
2499,,76th St NE & State Ave,,48.06481711935912,-122.1766403639644,,,0,,0,
250,,Alderwood Mall Blvd & 44th Ave W,,47.817231457144054,-122.29138561773678,,,0,,0,
2500,,76th St NE & 44th Ave NE,,48.06476374632436,-122.17182049768074,,,0,,0,
2501,,76th St NE & 47th Ave NE,,48.06470724202989,-122.16772456229558,,,0,,0,
2502,,Eastmont Park & Ride - Bay 3,,47.91529216994312,-122.20526785795533,,,0,,0,
2503,,30th Ave NE & 99th St NE,,48.08750122720012,-122.19145180088596,,,0,,0,
2505,,47th Ave NE & 75th Pl NE,,48.06405441694884,-122.16774857665429,,,0,,0,
2507,,Grove St & 65th Dr NE,,48.064384403599895,-122.14266287936668,,,0,,0,
2508,,67th Ave NE & Grove St,,48.065032648828215,-122.14063414564144,,,0,,0,
2509,,67th Ave NE & 80th Pl NE,,48.06880610718324,-122.14032481634514,,,0,,0,
251,,200th St SW & 53rd Pl W,,47.81736381878485,-122.30458746818258,,,0,,0,
2510,,67th Ave NE & 88th St NE,,48.07458034196447,-122.13983703473318,,,0,,0,
2511,,31st Ave NE & Walmart,,48.07982885171389,-122.18966627221262,,,0,,0,
2512,,67th Ave NE & 77th Pl NE,,48.06558924763348,-122.14087322636408,,,0,,0,
2513,,67th Ave NE & 80th Pl NE,,48.06873971224307,-122.14061766216422,,,0,,0,
2514,,67th Ave NE & 88th St NE,,48.07425048861148,-122.1401518755454,,,0,,0,
2515,,99th St NE & 31st Ave NE,,48.08564964940165,-122.18990124136435,,,0,,0,
2517,,Ash Ave & 6th St,,48.053727059658705,-122.18383950666109,,,0,,0,
252,,200th St SW & 56th Ave W (farside),,47.81736981760193,-122.30795027767915,,,0,,0,
2520,,Smokey Point Blvd & 182nd St NE,,48.16169395929969,-122.18304496581581,,,0,,0,
2521,,47th Ave NE & 188th St NE,,48.1671401038821,-122.16673629789747,,,0,,0,
2522,,47th Ave NE & 193rd Pl NE,,48.172452473105416,-122.16683293193451,,,0,,0,
2523,,Cemetery Rd & Highclover Blvd,,48.1767334321811,-122.1643695065295,,,0,,0,
2524,,Cemetery Rd & 53rd Ave NE,,48.176870881674446,-122.15863816218227,,,0,,0,
2525,,204th St NE & 66th Ave NE,,48.18097962603957,-122.1400374970832,,,0,,0,
2526,,47th Ave NE & 188th St NE,,48.166953137397385,-122.1670183498088,,,0,,0,
2527,,47th Ave NE & 193rd Pl NE,,48.172424479583086,-122.16711913216263,,,0,,0,
2528,,Cemetery Rd & 49th Ave NE,,48.176546015864425,-122.16421708610311,,,0,,0,
2529,,Cemetery Rd & 53rd Ave NE,,48.17667287729175,-122.15892821054582,,,0,,0,
253,,200th St SW & 64th Ave W,,47.8175197822462,-122.31923124504155,,,0,,0,
2530,,Smokey Point Blvd & 186th Pl NE,,48.16580493042171,-122.18458720281352,,,0,,0,
2531,,188th St NE & 35th Ave NE,,48.16690115440406,-122.1839274289938,,,0,,0,
2532,,91st Ave NE & 11th Pl SE,,47.985853229091184,-122.10868988926983,,,0,,0,
2533,,100th St NE & 67th Ave NE,,48.084799425828606,-122.14075478907577,,,0,,0,
2534,,100th St NE & 59th Dr NE,,48.085201598986266,-122.1506675848916,,,0,,0,
2535,,100th St NE & 51st Ave NE,,48.085645189899545,-122.1623780254695,,,0,,0,
2536,,100th St NE & Shoultes Rd,,48.08577149870042,-122.17133468025975,,,0,,0,
2537,,100th St NE & 67th Ave NE,,48.08500068733737,-122.14041616784363,,,0,,0,
2538,,100th St NE & 58th Ave NE,,48.08546092368445,-122.1522005298092,,,0,,0,
2539,,100th St NE & 51st Ave NE,,48.08583474666978,-122.16210874461886,,,0,,0,
254,,200th St SW & 66th Pl W,,47.81756004501747,-122.32245664846359,,,0,,0,
2540,,100th St NE & Shoultes Rd,,48.08596293650385,-122.17137647697176,,,0,,0,
2541,,Vernon Rd & 15th St NE,,48.009717029476576,-122.10554065274431,,,0,,0,
2542,,Vernon Rd & 95th Ave NE,,48.010481683556634,-122.10457884690781,,,0,,0,
2543,,Lynnwood Transit Center - Bay D4,,47.81584779909625,-122.29602410989257,,,0,,0,
2544,,Lynnwood Transit Center - Bay D5,,47.8158515501321,-122.29573111368641,,,0,,0,
2545,,Mill Creek Blvd & 161st St SE,,47.85176177387796,-122.2210322508717,,,0,,0,
255,,200th St SW & 68th Ave W,,47.81761815530164,-122.32451825872137,,,0,,0,
2550,,271st St NW & 88th Ave NW,,48.242238017094664,-122.35235677319274,,,0,,0,
2551,,271st St NW & 92nd Ave NW,,48.24222730944969,-122.35773359742505,,,0,,0,
2552,,271st St NW & 94th Dr NW,,48.242217930818214,-122.36113200377353,,,0,,0,
2553,,271st St NW & 97th Dr NW,,48.242201497834046,-122.36464102848721,,,0,,0,
2554,,272nd Pl NW & 100th Ave NW,,48.24368495601157,-122.36792803096766,,,0,,0,
2555,,271st St NW & 101st Ave NW,,48.242334756041224,-122.3696650577052,,,0,,0,
2557,,148th St SE & 51st Ave SE,,47.863093007176175,-122.16367394287569,,,0,,0,
2558,,148th St SE & 51st Ave SE,,47.863314683440855,-122.16418079736818,,,0,,0,
2559,,148th St SE & 48th Ave SE,,47.863467443519525,-122.1675420950049,,,0,,0,
256,,N 200th St & Hwy 99,,47.77406377477654,-122.34480012522609,,,0,,0,
2560,,148th St SE & 48th Ave SE,,47.86327244973645,-122.167569666529,,,0,,0,
2562,,148th St SE & 35th Ave SE,,47.86330253462546,-122.18647601647038,,,0,,0,
2563,,148th St SE & 35th Ave SE,,47.863496231509494,-122.18655849364727,,,0,,0,
2564,,148th St SE & 30th Ave SE,,47.86338350945022,-122.1907482026594,,,0,,0,
2565,,148th St SE & 30th Ave SE,,47.863575090845494,-122.19077767191527,,,0,,0,
2568,,Mill Creek Road & Hwy 527,,47.84944595718193,-122.21664422643327,,,0,,0,
2569,,S Stillaguamish Ave & Portage St,,48.18602242350267,-122.11780834170986,,,0,,0,
257,,200th St SW & Cedar Valley Rd,,47.81730777456993,-122.2999897375437,,,0,,0,
2570,,S Stillaguamish Ave & Portage St,,48.18606586212205,-122.11809232448628,,,0,,0,
2571,,Cedar Ave & 5th St,,48.052312302026486,-122.18033874446907,,,0,,0,
2572,,Vernon Rd & N Davies Rd,,48.004492017330904,-122.10620861198404,,,0,,0,
2573,,127th Ave NE & 18th St NE,,48.01335687754901,-122.05984818104415,,,0,,0,
2574,,127th Ave NE & 18th St NE,,48.0139105142844,-122.06012285338406,,,0,,0,
2575,,16th St NE & 18th St NE,,48.0117338894557,-122.06034899126811,,,0,,0,
2576,,16th St NE & Main St,,48.011767622080015,-122.06359823426334,,,0,,0,
2577,,16th St NE & Main St,,48.01196739168841,-122.06388902169329,,,0,,0,
2578,,Village Wy & W Main St,,47.8508550639292,-121.98602786086315,,,0,,0,
2579,,Main St & 18th St NE,,48.01357000720244,-122.06426637505871,,,0,,0,
258,,200th St SW & Hwy 99,,47.817479917499924,-122.31723530593067,,,0,,0,
2580,,Village Wy & Village Ct,,47.84896557652939,-121.9836192921646,,,0,,0,
2581,,Village Wy & Village Ct,,47.84912832416602,-121.98379398062868,,,0,,0,
2582,,Village Wy & Sky River Pkwy,,47.84977520551332,-121.98081043924091,,,0,,0,
2583,,Village Wy & Sky River Pkwy,,47.85001204774063,-121.98070570802112,,,0,,0,
2584,,Chain Lake Rd & Hwy 2,,47.85980503653516,-121.96978020778145,,,0,,0,
2585,,Chain Lake Rd & N Kelsey St,,47.862745028049,-121.96914395675795,,,0,,0,
2586,,N Kelsey St & Galaxy Wy,,47.8643874886386,-121.97600865755311,,,0,,0,
2587,,N Kelsey St & Lenton Pl SE,,47.863011908098386,-121.97647944018112,,,0,,0,
259,,200th St SW & 56th Ave W (nearside),,47.81737954184478,-122.31016924683422,,,0,,0,
2594,,154th St SE & Plainview Pl,,47.857796879540764,-121.99229726749589,,,0,,0,
2595,,154th St SE & Plainview Pl,,47.85759626441625,-121.99207278905489,,,0,,0,
2596,,154th St SE & 175th Ave SE,,47.85785655697644,-121.99587140565632,,,0,,0,
2597,,154th St SE & Lin Ave SE,,47.85766505009605,-121.99583044186423,,,0,,0,
2598,,154th St SE & Mulberry Dr,,47.857879319791486,-122.00036542424711,,,0,,0,
2599,,154th St SE & Mulberry Dr,,47.85769283656717,-122.00063824601679,,,0,,0,
260,,200th St SW & 60th Ave W,,47.81743280487239,-122.31473842996022,,,0,,0,
2600,,Fryelands Blvd & Currie Rd,,47.85036886495418,-122.011931415622,,,0,,0,
2601,,Fryelands Blvd & Currie Rd,,47.85019859081312,-122.01222489225948,,,0,,0,
2602,,Fryelands Blvd & 156th St SE,,47.85577954823291,-122.0118182697037,,,0,,0,
2603,,Fryelands Blvd & 156th St SE,,47.855351650365954,-122.01210184005006,,,0,,0,
2606,,Bickford Ave & 19th St,,47.93543334108363,-122.10409658141671,,,0,,0,
2607,,Bickford Ave & 19th St,,47.93527241343095,-122.10426807016883,,,0,,0,
2610,,148th St SW & 22nd Ave W,,47.8639150178976,-122.26278427932493,,,0,,0,
2611,,Marine Dr NE & 14th Ave NE,,48.050448568700155,-122.21214143366524,,,0,,0,
2612,,Marine Dr NE & 14th Ave NE,,48.050268864508055,-122.21272139734657,,,0,,0,
2613,,Marine Dr NE & 7th Ave NE,,48.04241929407907,-122.22247153303415,,,0,,0,
2614,,Marine Dr NE & 7th Dr NW,,48.03817801871637,-122.24290125029248,,,0,,0,
2615,,Marine Dr NE & 7th Dr NW,,48.03837326411092,-122.24352392588361,,,0,,0,
2616,,Marine Dr NE & 19th Ave NE,,48.05308774860524,-122.20606545840876,,,0,,0,
2617,,36th Ave W & Maple Rd,,47.834864432441144,-122.28150551706185,,,0,,0,
2618,,76th Ave W & 239th Pl SW,,47.782292765471475,-122.3352232089858,,,0,,0,
2619,,172nd St NE & 19th Dr NE,,48.15199175915112,-122.20728041862256,,,0,,0,
262,,Alderwood Mall Blvd & 40th Ave W,,47.8175056517473,-122.28729792039157,,,0,,0,
2620,,High St & 8th St,,47.869102380910924,-121.81011759424356,,,0,,0,
2621,,137th St SE & Puget Park Dr,,47.873382802465095,-122.15377059405671,,,0,,0,
2622,,E Stanley St & S Indiana Ave,,48.083324454440614,-121.96575401041937,,,0,,0,
2623,,188th St NE & 46th Ave NE,,48.1669584111315,-122.16869067490713,,,0,,0,
2624,,47th Ave NE & 191st Pl NE,,48.169239156548976,-122.16706938337566,,,0,,0,
2625,,47th Ave NE & 191st Pl NE,,48.169319227364205,-122.16678454992336,,,0,,0,
2626,,204th St NE & 74th Ave NE,,48.18075070488932,-122.13168085982083,,,0,,0,
2627,,204th St NE & 74th Ave NE,,48.18094396976325,-122.13180462362027,,,0,,0,
2628,,E Stanley St & N Kentucky Ave,,48.08351592611046,-121.96579913258473,,,0,,0,
263,,204th St SW & 23rd Ave W,,47.813370912912944,-122.26383270177999,,,0,,0,
2631,,2nd Ave & Cherry St,,47.60305359286616,-122.33334654661412,,,0,,0,
2632,,Everett Station - Bay F1,,47.97446641829748,-122.19796611187071,,,0,,0,
2633,,208th St SW & 66th Ave W,,47.81027720647463,-122.32057446594476,,,0,,0,
2634,,208th St SW & 66th Ave W,,47.810473071395094,-122.32069405883608,,,0,,0,
2635,,208th St SW & 63rd Ave W,,47.81041624323617,-122.31789602285664,,,0,,0,
2636,,66th Ave W & 210th St SW,,47.808817271201754,-122.3221403604418,,,0,,0,
2637,,66th Ave W & 212th St SW,,47.807042637484415,-122.32176377557208,,,0,,0,
2638,,4th Ave & Cherry St,,47.60428398448919,-122.3311156293863,,,0,,0,
2639,,66th Ave W & 214th St SW,,47.804609331042805,-122.32206428024256,,,0,,0,
264,,204th St SW & 30th Ave W,,47.813483030387744,-122.27345881018773,,,0,,0,
2640,,66th Ave W & 214th St SW,,47.804530761306715,-122.32178119390193,,,0,,0,
2641,,148th St SW & 40th Ave W,,47.8640678324109,-122.28763152702216,,,0,,0,
2642,,148th St SW & 40th Ave W,,47.86425741998653,-122.28781613681076,,,0,,0,
2644,,236th St SW & 59th Pl SW,,47.78491279190692,-122.31306494026367,,,0,,0,
2645,,Hwy 527 & 136th St SE,,47.874531709509014,-122.21435986059318,,,0,,0,
2646,,Hwy 527 & Trillium Blvd,,47.87149598848835,-122.21711926940877,,,0,,0,
2647,,Hwy 527 & 144th St SE,,47.868226807206575,-122.21809544632009,,,0,,0,
2648,,Hwy 527 & 153rd St SE,,47.859649426843255,-122.21883574852404,,,0,,0,
2649,,Main St & 153rd St SE,,47.85888876474398,-122.22006209339085,,,0,,0,
265,,204th St NE & 67th Ave NE,,48.18078595115438,-122.13995058783925,,,0,,0,
2650,,Hwy 527 & Dumas Rd,,47.87391594270941,-122.21539894964587,,,0,,0,
2651,,Hwy 527 & Heatherwood Dr,,47.87077596091082,-122.21793542106809,,,0,,0,
2652,,Hwy 527 & 153rd St SE,,47.85889058972871,-122.21900693219477,,,0,,0,
2653,,Hwy 527 & Mill Creek Blvd,,47.854589799535056,-122.2184518883735,,,0,,0,
2656,,Mill Creek Blvd & Hwy 527,,47.85500564713731,-122.21898039094042,,,0,,0,
2657,,153rd St SE & Hwy 527,,47.85915979636553,-122.21851301016628,,,0,,0,
2658,,153rd St SE & Cypress Dr SE,,47.85945773028471,-122.2163249787984,,,0,,0,
2659,,216th St SW & Hwy 99,,47.8030987442289,-122.3272954777033,,,0,,0,
266,,204th St NE & 71st Ave NE,,48.180781743189186,-122.13645354366243,,,0,,0,
2660,,216th St SW & Hwy 99,,47.80329239348347,-122.32737431668923,,,0,,0,
2661,,244th St SW & Hwy 99,,47.77788337738953,-122.34376427820375,,,0,,0,
2662,,212th St SW & 74th Ave W,,47.80676722869054,-122.33150394864501,,,0,,0,
2663,,44th Ave W & 198th St SW,,47.81850916525167,-122.29224799097943,,,0,,0,
2665,,Lake Stevens TC - Bay 1,,47.99931822563615,-122.10448380577542,,,0,,0,
2666,,Lake Stevens TC - Bay 2,,47.99977178390841,-122.10413138854362,,,0,,0,
2667,,McCollum Park P&R - Bay 3,,47.87945968320189,-122.22063761918565,,,0,,0,
2668,,Airport Rd & 94th St SW,,47.91377586840145,-122.27182564524466,,,0,,0,
2669,,4th St NE & 97th Dr NE,,47.999648803593054,-122.10062737531605,,,0,,0,
267,,204th St NE & 77th Ave NE,,48.18073699603207,-122.12608051105863,,,0,,0,
2670,,99th Ave NE & 4th St NE,,47.998683465875274,-122.0984140811872,,,0,,0,
2671,,Market Pl & 99th Ave NE,,47.99634919680365,-122.09925149891161,,,0,,0,
2673,,220th St SW & 64th Ave W,,47.79954716647049,-122.31852079714504,,,0,,0,
2675,,105th St NE & 30th Ave NE,,48.0907507675081,-122.19233543857933,,,0,,0,
2676,,33rd Ave W & Alderwood Mall Blvd,,47.82375943835555,-122.27761635870387,,,0,,0,
2677,,33rd Ave W & 188th St SW,,47.82676980061997,-122.27763918934559,,,0,,0,
2678,,33rd Ave W & 188th St SW,,47.82747088660157,-122.27792339508986,,,0,,0,
2679,,33rd Ave W & Alderwood Mall Blvd,,47.82375583669128,-122.27790126085843,,,0,,0,
268,,204th St SW & Poplar Wy,,47.81347789797924,-122.27842486757449,,,0,,0,
2682,,176th St SW & Hwy 99,,47.839240852841584,-122.3004029801891,,,0,,0,
2683,,176th St SW & 64th Ave W,,47.839416391014645,-122.32013217360769,,,0,,0,
2684,,176th St SW & Olympic View Dr,,47.83934543507708,-122.32473640038319,,,0,,0,
2685,,176th St SW & 67th Pl SW,,47.83914562185256,-122.32407901257393,,,0,,0,
2686,,176th St SW & 52nd Ave W,,47.83905884245103,-122.30304507520519,,,0,,0,
269,,204th St SW & Larch Wy,,47.81355271999843,-122.28614494004232,,,0,,0,
2690,,State Ave & 100th St NE,,48.08607607644872,-122.17225511744117,,,0,,0,
2697,,148th St SW & Hwy 525,,47.864072207578545,-122.27755099225742,,,0,,0,
2698,,5th Ave & Pine St,,47.611699387429546,-122.33665320819631,,,0,,0,
270,,N 205th St & Fremont Ave N,,47.77765729388038,-122.35129961326147,,,0,,0,
2700,,5th Ave & Seneca St,,47.608236872325946,-122.33348785220443,,,0,,0,
2702,,5th Ave & Marion St,,47.60593664942119,-122.33138213852315,,,0,,0,
2703,,I -5 & NE 195th St,,47.77028403730496,-122.32131508057586,,,0,,0,
2704,,Hwy 522 & 132nd Ave NE Flyer Stn,,47.75739096111487,-122.16557082477452,,,0,,0,
2705,,Hwy 522 & 132nd Ave NE Flyer Stn,,47.758818109579074,-122.16451364352065,,,0,,0,
2706,,5th Ave S & S Jackson St,,47.598994203692875,-122.32781349002981,,,0,,0,
2707,,I-5 & NE 195th St,,47.77027555482594,-122.32196560717408,,,0,,0,
271,,N 205th St & 91st Ave W,,47.77765457672949,-122.35541627214157,,,0,,0,
2710,,72nd Ave W & 216th St SW,,47.80378836194499,-122.33033118324792,,,0,,0,
2711,,72nd Ave W & 216th St SW,,47.80405823249228,-122.3300337285614,,,0,,0,
2713,,44th Ave W & 196th St SW,,47.82012316507653,-122.29254176994306,,,0,,0,
2715,,Main St & Cold Stone Creamery,,47.858189117060796,-122.22010039597556,,,0,,0,
2716,,Main St & 156th Pl SE,,47.857396028159634,-122.22015656554208,,,0,,0,
272,,N 205th St & Hwy 99,,47.777689308668265,-122.34371794744563,,,0,,0,
2721,,88th St NE & 36th Ave NE,,48.075760079121444,-122.18057891881128,,,0,,0,
2722,,6th Ave S & S Royal Brougham Wy,,47.592040957956115,-122.3261059933778,,,0,,0,
2724,,I-405 & NE 195th St Flyer Stop,,47.76784860768326,-122.19023313913873,,,0,,0,
2725,,148th St SE & Seattle Hill Rd,,47.86348272682251,-122.1788736398318,,,0,,0,
2726,,148th St SE & 42nd Dr SE,,47.863569008572064,-122.17549812266851,,,0,,0,
2727,,Dayton St & 2nd Ave S,,47.80960402599596,-122.3819616321154,,,0,,0,
2728,,State Ave & 128th St NE,,48.110883962847524,-122.17903665733478,,,0,,0,
2729,,State Ave & 128th St NE,,48.1110526148803,-122.17938496300619,,,0,,0,
273,,N 205th St & Greenwood Ave N,,47.7776637021395,-122.35802001357153,,,0,,0,
2733,,52nd Ave W & 154th St SW,,47.85889879429028,-122.3035348154989,,,0,,0,
2735,,52nd Ave W & 151st St SW,,47.861459119665426,-122.30379900725447,,,0,,0,
2736,,I-405 & Hwy 527 Flyer Stop,,47.79374626906942,-122.21421015385779,,,0,,0,
2737,,33rd Ave W & 188th St SW,,47.82836480438845,-122.27791981404746,,,0,,0,
2738,,36th Ave W & 184th St SW (nearside),,47.83167027328583,-122.28148953735786,,,0,,0,
2739,,31st Ave NE & Quil Ceda Blvd,,48.077504324762565,-122.18892595611686,,,0,,0,
274,,N 205th St & Whitman Ave N,,47.77768989560659,-122.34739943030006,,,0,,0,
2742,,Aurora Village Terminal - Bay 9,,47.774307,-122.341043,,,0,,0,
2744,,NE 185th St & Hwy 527,,47.76159182493125,-122.20671780151764,,,0,,0,
2745,,NE 185th St & 101st Ave NE,,47.76186679570387,-122.20551325144055,,,0,,0,
2746,,Hwy 527 & NE 190th St,,47.766289634675125,-122.2100550078262,,,0,,0,
2747,,238th St SW NB Station &,,47.78352671313922,-122.34311903352896,,,0,,0,
2748,,238th St SW SB Station &,,47.78283979978986,-122.34405509120155,,,0,,0,
2749,,228th St SE & 10th Ave SE,,47.79138020848805,-122.21872054748081,,,0,,0,
2750,,228th St SE & 10th Ave SE,,47.79118781656717,-122.21853230904323,,,0,,0,
2751,,228th St SE & 9th Ave SE,,47.7913674636391,-122.22112490662164,,,0,,0,
2752,,228th St SE & 9th Ave SE,,47.79117532282258,-122.22091632166591,,,0,,0,
2753,,Gateway NB Station & 216th St SW,,47.80353295138313,-122.32868769628813,,,0,,0,
2754,,216th St SW SB Station &,,47.8028458376047,-122.32964871635417,,,0,,0,
2755,,72nd Ave W & 210th St SW,,47.808497473049194,-122.33003572750033,,,0,,0,
2756,,72nd Ave W & 210th St SW,,47.80835669353899,-122.33031658421902,,,0,,0,
2757,,228th St SE & 4th Ave SE,,47.791357261887995,-122.22669084601637,,,0,,0,
2758,,228th St SE & 4th Ave SE,,47.79116889000286,-122.22594932130922,,,0,,0,
2759,,228th St SE & Meridian Ave S,,47.79120874146815,-122.23255822380098,,,0,,0,
276,,208th St SW & 63rd Ave W,,47.81021679698688,-122.31762980228817,,,0,,0,
2760,,Cedar St & Hewitt Ave,,47.97875307090507,-122.19371805137263,,,0,,0,
2761,,Heron NB Station & 200th St SW,,47.81783458563546,-122.31779505124328,,,0,,0,
2763,,228th St SW & 45th Pl W,,47.79178408348943,-122.29390488837967,,,0,,0,
2764,,Crossroads SB Station & 196th St SW,,47.82083209637449,-122.31564171321345,,,0,,0,
2765,,Mountlake Terrace FS - Bay 6,,47.787241452884786,-122.31639036529904,,,0,,0,
2766,,Mountlake Terrace FS - Bay 7,,47.787552501712206,-122.31629754450289,,,0,,0,
2767,,Cherry Hill NB Station & 176th St SW,,47.839627153702864,-122.29893144482304,,,0,,0,
2768,,Everett Station - Bay A4,,47.974353035971845,-122.1971260506116,,,0,,0,
277,,208th St SW & 72nd Ave W,,47.81040332054085,-122.32939470900124,,,0,,0,
2770,,International SB Station & 174th Pl SW,,47.84082186977636,-122.29835024840229,,,0,,0,
2771,,48th Ave W & 228th St SW,,47.7918062979697,-122.29752283230953,,,0,,0,
2774,,228th St SW & 46th Ave W,,47.79199071418237,-122.29489947269307,,,0,,0,
2775,,Brier Rd & 232nd St SW,,47.7879078060652,-122.27441669773269,,,0,,0,
2776,,236th St SW & Brier Rd,,47.7842800918878,-122.27333948458822,,,0,,0,
2777,,148th St SW NB Station &,,47.863939867292906,-122.28194382263169,,,0,,0,
2778,,148th St SW SB Station &,,47.86379812807801,-122.28252660222869,,,0,,0,
2779,,Lincoln Way NB Station &,,47.87335670131969,-122.27317630837726,,,0,,0,
2780,,Lincoln Way SB Station &,,47.87267095231102,-122.27428609675418,,,0,,0,
2781,,Airport Rd NB Station &,,47.889553572430216,-122.25803788720243,,,0,,0,
2782,,Airport Rd SB Station &,,47.889217904209275,-122.25879097021053,,,0,,0,
2783,,112th St SW NB Station &,,47.8968275833386,-122.25121723241324,,,0,,0,
2784,,112th St SW SB Station &,,47.89599221680228,-122.2524704828499,,,0,,0,
2787,,4th Ave W NB Station &,,47.909703578619066,-122.23921318954777,,,0,,0,
2788,,4th Ave W SB Station &,,47.90998045381438,-122.23944093709184,,,0,,0,
279,,208th St SW & 59th Pl W,,47.81016528257522,-122.31357010296777,,,0,,0,
2795,,Casino Rd NB Station &,,47.92116988249069,-122.22847868078527,,,0,,0,
2796,,Casino Rd SB Station &,,47.92129667800901,-122.22887369391846,,,0,,0,
28,,W Main St & 179th Ave SE,,47.85073985732524,-121.99091736282959,,,0,,0,
2807,,Madison St NB Station &,,47.93652561840829,-122.21866779164917,,,0,,0,
2808,,Pecks Dr SB Station &,,47.94140793580765,-122.21783965168149,,,0,,0,
2815,,50th St NB Station &,,47.95207842443251,-122.21336640570432,,,0,,0,
2816,,50th St SB Station &,,47.951655108608726,-122.21391018506189,,,0,,0,
2819,,40th St NB Station &,,47.964907503697006,-122.21063893587394,,,0,,0,
2820,,41st St SB Station &,,47.96287985346464,-122.21098497015555,,,0,,0,
283,,212th St SW & 80th Ave W,,47.80682199442733,-122.34088732890011,,,0,,0,
2835,,Colby Ave NB Station &,,47.97644143460866,-122.20798591013335,,,0,,0,
2836,,Wetmore Ave SB Station &,,47.9766476927592,-122.20679086551655,,,0,,0,
2837,,Everett Station &,,47.97344919167681,-122.19704503010391,,,0,,0,
2838,,Everett Station Terminal - Bay G1,,47.97345273739112,-122.19674705148933,,,0,,0,
284,,212th St SW & 84th Ave W,,47.806837561106065,-122.34634592387346,,,0,,0,
2846,,N Olympic Ave & E 5th St,,48.19740482098051,-122.12647884336624,,,0,,0,
2847,,N Olympic Ave & E 3rd St,,48.194615364577324,-122.1265809587265,,,0,,0,
2848,,N Olympic Ave & E 1st St,,48.192600184184755,-122.1265836120076,,,0,,0,
2849,,N Olympic Ave & E 5th St,,48.19748479084918,-122.12619379085665,,,0,,0,
2850,,I-405 & NE 128th St Flyer Stop,,47.71514085275078,-122.18540249010766,,,0,,0,
2851,,I-405 & NE 128th St Flyer Stop,,47.7156887116284,-122.1861399514358,,,0,,0,
2856,,NE 10th St & 102nd Ave NE,,47.61918831204264,-122.20460918463922,,,0,,0,
2857,,NE 8th St & 106th Ave NE,,47.61752469565206,-122.19953276629144,,,0,,0,
2858,,NE 8th St & 102nd Ave NE,,47.61759302409752,-122.20479423309332,,,0,,0,
2859,,NE 10th St & Bellevue Wy NE,,47.619252925076346,-122.201974883716,,,0,,0,
286,,212th St SW & 77th Pl W,,47.806806445873235,-122.33790749308604,,,0,,0,
2860,,Bellevue Transit Center - Bay 8,,47.61549335673961,-122.1944632791144,,,0,,0,
2861,,Everett Station &,,47.97425551840186,-122.19748688546784,,,0,,0,
2862,,244th St SW & 1st Ave NE,,47.77771289277266,-122.33027012077767,,,0,,0,
2863,,Hwy 527 & 186th Pl SE,,47.82794650909715,-122.20916869010284,,,0,,0,
2864,,Darrington St & Givens Ave,,48.24985863531701,-121.6039431531529,,,0,,0,
2865,,W Main St & 174th Dr SE,,47.85031020593795,-121.99758796919261,,,0,,0,
2866,,W Main St & 174th Dr SE,,47.85050627364039,-121.99718097145355,,,0,,0,
2867,,South Everett Fwy Station - Bay 2,,47.89860105089168,-122.2144966528695,,,0,,0,
2868,,South Everett Fwy Station - Bay 3,,47.89823154325257,-122.21467026713229,,,0,,0,
2869,,South Everett Fwy Station - Bay 6,,47.89889033144451,-122.21438205474396,,,0,,0,
2871,,Beverly Park Rd & Picnic Point Rd,,47.870381681358,-122.2960814246926,,,0,,0,
2872,,164th St SW & 36th Ave W,,47.84993156530118,-122.28127503084195,,,0,,0,
2873,,164th St SW & 36th Ave W,,47.850112530311144,-122.28019245483608,,,0,,0,
2875,,Aurora Village TC - Bay 5,,47.774422,-122.341429,,,0,,0,
2876,,Aurora Village TC - Bay 7,,47.774298,-122.342025,,,0,,0,
2877,,Aurora Village TC &,,47.77446247952923,-122.34202132681004,,,0,,0,
288,,220th St SE & 17th Ave SE,,47.79817878144408,-122.20999023564094,,,0,,0,
2882,,Cedar and Grove P&R &,,48.06121356625725,-122.17952003001542,,,0,,0,
2883,,Cedar and Grove P&R - Bay 1,,48.06121351830524,-122.17952411887468,,,0,,0,
2888,,Smokey Point Blvd & 142nd St NE,,48.12499911526026,-122.18390186161523,,,0,,0,
2889,,Smokey Point Blvd & 147th St NE,,48.12975789439588,-122.1832812352835,,,0,,0,
289,,220th St SW & 54th Ave W,,47.79917939519459,-122.30563007430315,,,0,,0,
2890,,Smokey Point Blvd & 142nd St NE,,48.12467443334095,-122.1842332476696,,,0,,0,
2891,,Smokey Point Blvd & 147th St NE,,48.12938931163556,-122.18361560060104,,,0,,0,
29,,Alphonses Bob Loop Road & 36th Ave NW,,48.06509654787023,-122.2806518156162,,,0,,0,
290,,220th St SW & 66th Ave W,,47.799374678227245,-122.32145003235892,,,0,,0,
2903,,NE 185th St & Beardslee Blvd,,47.76204964567909,-122.19758018296373,,,0,,0,
2904,,NE 185th St & 103rd Ave NE,,47.762083971537486,-122.2022698183334,,,0,,0,
2905,,Boeing Access Rd & Seaway Blvd,,47.93086175084374,-122.26122811076439,,,0,,0,
2906,,Cedar St & Hewitt Ave,,47.97874693749138,-122.19400374161371,,,0,,0,
2907,,6th Ave S & S Atlantic St,,47.59008677299097,-122.32583107804484,,,0,,0,
2908,,Airport Wy S & S Royal Brougham Wy,,47.59206496587651,-122.32385704935764,,,0,,0,
2909,,2nd Ave & Seneca St,,47.606667732237845,-122.3366578666364,,,0,,0,
291,,220th St SW & 76th Ave W,,47.799555897302476,-122.33525530070993,,,0,,0,
292,,220th St SW & 80th Ave W,,47.79954652773747,-122.34075309248378,,,0,,0,
293,,220th St SW & 84th Ave W,,47.799517707004014,-122.34625032234275,,,0,,0,
294,,220th St SW & 88th Ave W,,47.79947735084216,-122.35156408244931,,,0,,0,
295,,220th St SW & 92nd Ave W,,47.7994872191484,-122.35597178788339,,,0,,0,
296,,220th St SW & 95th Ave W,,47.79948016677898,-122.35958135165957,,,0,,0,
297,,220th St SW & 58th Ave W,,47.79937639804817,-122.31160574478145,,,0,,0,
298,,220th St SW & 70th Ave W,,47.79947212317169,-122.32826534897276,,,0,,0,
299,,220th St SW & 77th Pl W,,47.79954651780059,-122.3380508603175,,,0,,0,
300,,220th St SW & 82nd Pl W,,47.79952776240029,-122.34404080625099,,,0,,0,
301,,223rd St SE & 23rd Dr SE,,47.795894699423634,-122.20155516142232,,,0,,0,
303,,228th St SE & 15th Ave SE,,47.791219264914346,-122.21276351978315,,,0,,0,
304,,228th St SW & 32nd Ave W,,47.791742591913874,-122.27624850781636,,,0,,0,
305,,228th St SW & 35th Ave W,,47.791674604216944,-122.27988832293487,,,0,,0,
306,,228th St SW & 66th Ave W,,47.79209077146305,-122.32175368618792,,,0,,0,
307,,228th St SW & 76th Ave W,,47.792272517996025,-122.33509723008027,,,0,,0,
308,,228th St SE & Hwy 527,,47.79118196000518,-122.21607456798748,,,0,,0,
309,,228th St SW & 38th Pl W,,47.79165800763422,-122.28335867311056,,,0,,0,
31,,Puget Park Dr & 134th Pl SE,,47.87551252144997,-122.15264304398207,,,0,,0,
310,,228th St SW & 39th Pl W,,47.79170631237525,-122.28689187764297,,,0,,0,
311,,228th St SW & 72nd Pl W,,47.79219972975857,-122.33082669570423,,,0,,0,
312,,228th St SW & 42nd Pl W,,47.79173689658761,-122.28987121485221,,,0,,0,
313,,230th St SW & 60th Ave W,,47.79018149447069,-122.31359369492938,,,0,,0,
316,,232nd St SE & 20th Ave SE,,47.78752854161658,-122.20640383941627,,,0,,0,
318,,236th St SW & 48th Ave W,,47.78455168073798,-122.29726105052367,,,0,,0,
319,,236th St SW & 52nd Ave W,,47.784614129745435,-122.30264532559458,,,0,,0,
32,,134th Pl SE & 54th Ave SE,,47.87735155175426,-122.15792701045609,,,0,,0,
320,,236th St SW & 54th Ave W,,47.78463622338817,-122.30540027204863,,,0,,0,
322,,236th St SW & 58th Ave W,,47.78468774577756,-122.31075171783785,,,0,,0,
324,,236th St SW & 50th Ave W,,47.784577395610086,-122.30059787299926,,,0,,0,
325,,Mountlake Terrace TC - Bay 4,,47.78484767589648,-122.31512578490971,,,0,,0,
326,,238th St SW & Edmonds Wy,,47.78311403390966,-122.35046258664643,,,0,,0,
327,,238th St SW & 84th Ave W,,47.78312960522237,-122.34701715148866,,,0,,0,
328,,238th St SW & Hwy 99,,47.783145927406245,-122.34392161674666,,,0,,0,
33,,Date St & 4th St,,47.86554637468231,-121.81684247924035,,,0,,0,
332,,Stanwood II Park & Ride &,,48.23910794641554,-122.34977698574278,,,0,,0,
333,,271st St NW & 94th Dr NW,,48.242026364555315,-122.36069121370608,,,0,,0,
334,,271st St NW & 90th Ave NW,,48.24204682442445,-122.35334034838107,,,0,,0,
335,,271st St NW & 92nd Ave NW,,48.24203445089629,-122.35801110011849,,,0,,0,
336,,271st St NW & 96th Ave NW,,48.242021828564155,-122.36330575911211,,,0,,0,
337,,272nd St NW & 76th Dr NW,,48.24297354132227,-122.33515504188271,,,0,,0,
338,,272nd St NW & 80th Ave NW,,48.242989064853305,-122.34152193301972,,,0,,0,
339,,272nd St NW & 79th Dr NW,,48.242992214410435,-122.33981445629011,,,0,,0,
340,,276th St NW & 78th Ave NW,,48.24659451988357,-122.33900873397263,,,0,,0,
341,,276th St NW & 73rd Ave NW,,48.24652681793825,-122.33179424743102,,,0,,0,
342,,64th St NE & 47th Ave NE,,48.051684474652006,-122.16742454238627,,,0,,0,
343,,4th St & Columbia Ave,,48.05175130373531,-122.17509789671058,,,0,,0,
344,,4th St & Quinn Ave,,48.05170926603972,-122.17165356936377,,,0,,0,
348,,NE 45th St & 7th Ave NE,,47.66122823196884,-122.3209980494135,,,0,,0,
349,,NE 45th St & Roosevelt Wy,,47.661197806019906,-122.31723469342049,,,0,,0,
350,,NE 45th St & University Wy NE,,47.66117558412588,-122.31346346144093,,,0,,0,
353,,56th St SE & 91st Ave SE,,47.94558036536921,-122.1100470076405,,,0,,0,
355,,Bellevue Transit Center - Bay 4,,47.61557124909218,-122.19505736079905,,,0,,0,
356,,64th St NE & 65th Dr NE,,48.0535851886299,-122.14284682351801,,,0,,0,
357,,64th St NE & 56th Dr NE,,48.05379387718069,-122.15501836660297,,,0,,0,
358,,64th St NE & 54th Ave NE,,48.0538317387293,-122.15649155788917,,,0,,0,
359,,64th St NE & 60th Dr NE,,48.053715404732145,-122.14920109987983,,,0,,0,
36,,Pioneer Hwy & 77th Ave NW,,48.23415813122461,-122.33750355836773,,,0,,0,
369,,92nd St SE & 113th Dr SE,,47.913172204388566,-122.07843948793304,,,0,,0,
37,,N 200th St & Burke Ave N,,47.77408018872766,-122.33691346887773,,,0,,0,
370,,Alderwood Mall Blvd & 28th Ave W,,47.82629804668467,-122.27069200171546,,,0,,0,
371,,Alderwood Mall Blvd & 33rd Ave W,,47.82267850211997,-122.27744780583195,,,0,,0,
372,,Beardslee Blvd & 108th Ave NE,,47.7621675561538,-122.19597292793264,,,0,,0,
373,,Beardslee Blvd & Beardslee Pl,,47.76156462731584,-122.19755523020967,,,0,,0,
374,,Beardslee Blvd & Sunrise Dr,,47.76055857721406,-122.20028581737374,,,0,,0,
375,,Beardslee Blvd & 110th Ave NE,,47.763379142116676,-122.19416255801721,,,0,,0,
38,,Meridian Ave N & N 203rd St,,47.776088614202834,-122.33514932375601,,,0,,0,
384,,E Burke Ave & N Manhattan St,,48.20015574395085,-122.12149953358633,,,0,,0,
39,,Meridian Ave N & N 205th St,,47.77737875616391,-122.33545922838144,,,0,,0,
399,,Caspers St & 7th Ave N,,47.817676204705414,-122.3718378470405,,,0,,0,
40,,Meridian Ave N & N 203rd St,,47.77563793432133,-122.33543322010597,,,0,,0,
400,,Caspers St & 9th Ave N,,47.81766648083713,-122.36807587957252,,,0,,0,
401,,Chennault Beach Rd & Harbour Pointe Blvd,,47.897726775155355,-122.30380213971064,,,0,,0,
402,,Chennault Beach Rd & Harbour Reach Dr,,47.895089825602646,-122.29989473471517,,,0,,0,
406,,Dayton St & 5th Ave S,,47.80959840578287,-122.37731300159139,,,0,,0,
408,,W Dayton St & Edmonds Wy,,47.809603469165246,-122.38382181637877,,,0,,0,
41,,N 200th St & Burke Ave N,,47.774271884668885,-122.3367237789191,,,0,,0,
415,,Grove St & 60th Dr NE,,48.06440864561549,-122.14869673590475,,,0,,0,
416,,Grove St & 47th Ave NE,,48.061122881703966,-122.16732508157088,,,0,,0,
417,,Grove St & 51st Ave NE,,48.06104148043253,-122.16205085897704,,,0,,0,
419,,Cedar and Grove P&R - Bay 3,,48.06119299609703,-122.17987124257685,,,0,,0,
422,,Grove St & 54th Ave NE,,48.06093169975082,-122.15802749195213,,,0,,0,
423,,Grove St & 59th Ave NE,,48.06362738490838,-122.15155227612716,,,0,,0,
426,,Hewitt Ave & Lombard Ave,,47.9791392033889,-122.20296539296524,,,0,,0,
427,,Hewitt Ave & Virginia Ave,,47.979049288987675,-122.19693966117907,,,0,,0,
430,,Howell St & 9th Ave,,47.61462555804294,-122.33329492484458,,,0,,0,
431,,Howell St & Yale Ave,,47.61756292137482,-122.32949455185619,,,0,,0,
432,,Harbour Pointe Blvd SW & 52nd Pl W,,47.88603134133207,-122.30409762953023,,,0,,0,
433,,Harbour Pointe Blvd SW & Village Center Pl,,47.88639166325428,-122.2980258577979,,,0,,0,
435,,Harbour Pointe Blvd SW & Harbour Reach Dr,,47.88703305155984,-122.29418360088619,,,0,,0,
436,,Larch Wy & Cypress Wy,,47.80803321880718,-122.25893953152446,,,0,,0,
439,,Lewis Ave & 3rd St,,47.857613780529235,-121.69896588946365,,,0,,0,
440,,Lewis Ave & 7th St,,47.85534109290112,-121.69459371559438,,,0,,0,
441,,Lake View Dr & Cedar Rd,,48.015227651996334,-122.0838837133845,,,0,,0,
442,,Lakewood Rd & 52nd Ave NW,,48.15567097347529,-122.29751124680342,,,0,,0,
443,,Lakewood Rd & 176th Pl NW,,48.15632738989452,-122.24456644375647,,,0,,0,
444,,Lakewood Rd & 184th St NW,,48.16306434749402,-122.33567212601231,,,0,,0,
445,,Lakewood Rd & 188th St NW,,48.166762262368266,-122.34786289306756,,,0,,0,
446,,Lakewood Rd & Freestad Rd,,48.155491771404265,-122.27480078076913,,,0,,0,
447,,Lakewood Rd & 65th Dr NW,,48.160762559429934,-122.32588000241714,,,0,,0,
448,,Lakewood Rd & 172nd St NW,,48.152202814410934,-122.23904483424938,,,0,,0,
449,,Lakewood Rd & 60th Ave NW,,48.15895800479124,-122.31467289451162,,,0,,0,
450,,Lakewood Rd & E Lake Goodwin Rd,,48.15556777792344,-122.28705913945011,,,0,,0,
451,,Lakewood Rd & 53rd Dr NW,,48.155788946003504,-122.30630835633173,,,0,,0,
452,,Lakewood Rd & 26th Ave NW,,48.15653433649035,-122.26156139860164,,,0,,0,
453,,Logan Rd & Locust Wy,,47.80837250425969,-122.2537145396906,,,0,,0,
455,,Lundeen Pkwy & Vernon Rd,,48.01778121382124,-122.0908151213288,,,0,,0,
456,,Lundeen Pkwy & 101st Ave NE,,48.01777669980816,-122.09472179310869,,,0,,0,
457,,Main St & 7th Ave N,,47.81043345348678,-122.37273411937423,,,0,,0,
458,,W Main St & 179th Ave SE,,47.85060395498194,-121.99025852133653,,,0,,0,
459,,Main St & 8th Ave S,,47.8104346737606,-122.36918059681472,,,0,,0,
460,,Main St & 9th Ave S,,47.81042677550045,-122.36629844165378,,,0,,0,
461,,Main St & Hillcrest Pl,,47.81041403426038,-122.35412319588069,,,0,,0,
462,,W Main St & S Kelsey St,,47.853726486899426,-121.9769384856513,,,0,,0,
463,,W Main St & S Madison St,,47.854870232166455,-121.97332597879925,,,0,,0,
465,,E Main St & Woods St,,47.856461771194525,-121.96823214362968,,,0,,0,
466,,Main St & 12th Ave N,,47.81039570537541,-122.35919856661062,,,0,,0,
467,,Main St & Olympic Ave,,47.81041380014671,-122.36133204190638,,,0,,0,
468,,Main St & 86th Pl W,,47.8104034416943,-122.35058969795574,,,0,,0,
469,,Market Pl & 91st Ave NE,,47.99780140835641,-122.10799635847164,,,0,,0,
470,,Monte Villa Pkwy & 35th Ave SE,,47.778056218401154,-122.18124595943664,,,0,,0,
473,,Olive Wy & 6th Ave,,47.61267400280772,-122.33697738281482,,,0,,0,
476,,Olive Wy & Terry Ave,,47.614846334452466,-122.33193875103407,,,0,,0,
477,,Pioneer Hwy & 77th Ave NW,,48.23402652892911,-122.33771311641748,,,0,,0,
478,,Puget Dr & Olympic View Dr,,47.82139155604912,-122.36347155414798,,,0,,0,
483,,Seeman St & Railroad Ave,,48.255181200773684,-121.603312779761,,,0,,0,
486,,Smokey Point Dr & Smokey Point Blvd,,48.15467544586103,-122.18394682984744,,,0,,0,
487,,Edmonds Wy & 100th Ave W,,47.79040987212304,-122.36631701229373,,,0,,0,
488,,Edmonds Wy & 102nd Pl W,,47.7920869998699,-122.36965440547223,,,0,,0,
489,,Edmonds Wy & 232nd Pl SW,,47.78829607293682,-122.35460971618082,,,0,,0,
490,,N 205th St & Meridian Ave N,,47.77764959061257,-122.33488129395381,,,0,,0,
491,,Edmonds Wy & 238th St SW,,47.78406337776992,-122.35289072944299,,,0,,0,
492,,NE 205th St & 6th Ave NE,,47.77755597533259,-122.32319153465157,,,0,,0,
493,,Edmonds Wy & 95th Pl W,,47.79171900997213,-122.36029285127718,,,0,,0,
497,,Hwy 520 & Evergreen Point Fwy St,,47.636905402463064,-122.23755087560005,,,0,,0,
498,,Hwy 520 & Montlake Fwy Station,,47.64404101750604,-122.30435371648947,,,0,,0,
499,,Hwy 530 & Ramstad Rd (nearside),,48.26836804723535,-121.96092590488928,,,0,,0,
500,,Hwy 530 & E Post Rd,,48.27702932096246,-121.81361539892076,,,0,,0,
501,,Hwy 530 & 379th Ave NE,,48.26864965875107,-121.71934327195493,,,0,,0,
502,,Hwy 530 & French Creek Rd,,48.27838527909289,-121.76345263361932,,,0,,0,
504,,Hwy 530 & 103rd Ave NE,,48.226014285491495,-122.0925923648151,,,0,,0,
505,,Hwy 530 & 114th Ave NE,,48.232250816121244,-122.0744757611223,,,0,,0,
506,,Hwy 530 & 119th Ave NE,,48.234002725002405,-122.0691216122753,,,0,,0,
507,,Hwy 530 & 171st Ave NE (nearside,,48.270528679788036,-122.00380109803118,,,0,,0,
508,,Hwy 530 & 179th Ave NE,,48.27355827746284,-121.98445702404783,,,0,,0,
509,,Hwy 530 & 221st Ave NE,,48.27062339316872,-121.93149425032831,,,0,,0,
510,,Hwy 530 & 304th St NE,,48.27349910128773,-121.91469322559671,,,0,,0,
511,,Hwy 530 & 387th Ave NE,,48.2686207847603,-121.70587834308861,,,0,,0,
513,,Hwy 530 & Jim Creek Rd,,48.23630821289046,-122.06145342280239,,,0,,0,
514,,Hwy 530 & Lake Cavanaugh Rd,,48.270164507433286,-121.93419064822653,,,0,,0,
515,,Hwy 530 & Oso Loop Rd,,48.27208525662633,-121.89989587879991,,,0,,0,
516,,Hwy 530 & Ramstad Rd (farside),,48.268745299400315,-121.95457330699216,,,0,,0,
517,,Hwy 530 & Tom Creek Rd,,48.26903868267726,-121.72718891007739,,,0,,0,
518,,Hwy 530 & Arlington Heights Rd,,48.20481823826539,-122.1174286922311,,,0,,0,
519,,Hwy 530 & 294th St NE,,48.26473079824774,-122.02009777630501,,,0,,0,
520,,Hwy 530 & Boulder Creek Dr,,48.27868906575837,-121.77264571956412,,,0,,0,
521,,Hwy 530 & 139th Ave NE,,48.24739684066972,-122.04187162319747,,,0,,0,
522,,Hwy 530 & 310th St NE,,48.2767488741378,-121.7977858883621,,,0,,0,
523,,Hwy 530 & 411th Ave NE,,48.26910405906156,-121.67592708153906,,,0,,0,
524,,Hwy 530 & Hillis Rd,,48.268590821365976,-122.00914463364819,,,0,,0,
525,,Hwy 530 & Squire Creek Rd,,48.27073622510388,-121.66976549597727,,,0,,0,
526,,Hwy 530 & Powerline Rd,,48.263096230616185,-121.6338099489985,,,0,,0,
527,,Hwy 530 & 171st Ave NE(Cicero Pk,,48.2731995390626,-121.99941836121502,,,0,,0,
528,,Hwy 530 & Whitman Rd,,48.271564671501274,-121.88914215531862,,,0,,0,
529,,Hwy 530 & 350th Dr NE,,48.27797203114215,-121.75722709406861,,,0,,0,
531,,Stanwood I P&R - Bay 1,,48.23881362537517,-122.24322335797957,,,0,,0,
532,,Hwy 92 & 127th Dr NE,,48.03199893040368,-122.05873377622494,,,0,,0,
533,,Hwy 92 & 147th Ave NE,,48.051601015889176,-122.03264388542351,,,0,,0,
534,,Hwy 92 & 44th St NE,,48.03617383917854,-122.0495285826809,,,0,,0,
536,,Hwy 92 & 64th St NE,,48.05748905300452,-122.02644176147392,,,0,,0,
537,,Hwy 92 & Crooked Mile Rd,,48.07920125517065,-122.00104152343901,,,0,,0,
538,,Hwy 92 & 161st Ave NE,,48.067364121631165,-122.01536416452369,,,0,,0,
539,,Hwy 92 & 44th St NE (farside),,48.039615254778084,-122.04559090587821,,,0,,0,
540,,Hwy 92 & 75th St NE,,48.06292637140145,-122.02030966063245,,,0,,0,
541,,Hwy 92 & 84th St NE,,48.0714828225957,-122.00996055499249,,,0,,0,
543,,W Stanley St & Portage Ave,,48.08318866166672,-121.97448675235378,,,0,,0,
544,,W Stanley St & Cascade Ave,,48.0832301016056,-121.97086244152226,,,0,,0,
545,,Stevens Wy & Memorial Wy,,47.659673386130294,-122.30857060525095,,,0,,0,
546,,Terrace St & 5th Ave,,47.60208905430924,-122.32808885561796,,,0,,0,
547,,Gold Bar P&R - Bay 1,,47.85679656272565,-121.70116419695833,,,0,,0,
548,,Sultan P&R - Bay 2,,47.86301996373755,-121.80416459313038,,,0,,0,
549,,Hwy 2 & 179th Ave SE,,47.86545979863725,-121.99043153587425,,,0,,0,
550,,Hwy 2 & 339th Ave SE,,47.86787534597817,-121.77732297577128,,,0,,0,
551,,Hwy 2 & 363rd Ave SE,,47.86709460052206,-121.74514502795876,,,0,,0,
552,,Hwy 2 & Fryelands Blvd SE,,47.872125790401434,-122.00730438703086,,,0,,0,
553,,Hwy 2 & N Kelsey St,,47.860674142430746,-121.97693302342952,,,0,,0,
554,,Hwy 2 & Main St,,47.85766183030811,-121.96361017452769,,,0,,0,
555,,Hwy 2 & Sofie Rd,,47.85467579056243,-121.90703201943043,,,0,,0,
556,,Hwy 2 & Ann St,,47.858150526795555,-121.9657596331727,,,0,,0,
557,,Hwy 2 & N Lewis St,,47.859218757065854,-121.97056176817317,,,0,,0,
558,,Hwy 2 & Maple St,,47.85916168291317,-121.82628259221384,,,0,,0,
560,,Hwy 2 & 368th Dr SE,,47.86708755646648,-121.73774572507025,,,0,,0,
563,,Hwy 2 & Roosevelt Rd (West),,47.900685089311224,-122.03675834816097,,,0,,0,
564,,Hwy 2 & Westwick Rd,,47.905595036004456,-122.04357218886925,,,0,,0,
566,,Walnut St & 10th Ave S,,47.80716784722546,-122.36395121606263,,,0,,0,
567,,Yesler Wy & 2nd Ave S,,47.6016210078876,-122.33115250548357,,,0,,0,
570,,1st St & Hwy 2,,47.85764639741373,-121.7018954033054,,,0,,0,
571,,1st St & High St,,47.86878783826575,-121.82056713423295,,,0,,0,
575,,100th Ave W & 237th Pl SW,,47.78439201874855,-122.36625303910586,,,0,,0,
576,,100th Ave W & 232nd St SW,,47.78848603872523,-122.36664667322222,,,0,,0,
577,,104th Ave NE & NE 204th Pl,,47.77592331129594,-122.20150426367212,,,0,,0,
578,,104th Ave NE & NE 198th St,,47.772364667324766,-122.20147548043133,,,0,,0,
581,,Main St & 18th St NE,,48.014113062583654,-122.06399328266862,,,0,,0,
583,,15th Ave NE & NE 41st St,,47.6574249711,-122.31195244513826,,,0,,0,
584,,15th Ave NE & NE 42nd St,,47.65898295372673,-122.31191152811428,,,0,,0,
585,,179th Ave SE & 147th St SE,,47.86453508714407,-121.99050458411412,,,0,,0,
586,,179th Ave SE & 157th Pl SE,,47.85462127266745,-121.99046639557294,,,0,,0,
587,,179th Ave SE & W Main St,,47.85102734820487,-121.99041461908061,,,0,,0,
588,,179th Ave SE & 154th St SE,,47.85746154733588,-121.99048504410771,,,0,,0,
589,,179th Ave SE & Stanton St,,47.86007671805133,-121.990531257238,,,0,,0,
592,,19th Ave SE & 228th St SE,,47.79086290830954,-122.20798131751773,,,0,,0,
595,,209th St NE & Keith Ln,,48.18257438169917,-122.1223754381892,,,0,,0,
596,,23rd Ave SE & 236th St SE,,47.783633315950944,-122.2019802352738,,,0,,0,
597,,23rd Ave SE & 171st Pl SE,,47.84285918240295,-122.20167149029415,,,0,,0,
598,,23rd Ave SE & 240th St SE,,47.78002268079314,-122.20171410149588,,,0,,0,
599,,24th Ave W & 197th Pl SW,,47.819263333891854,-122.26558307516814,,,0,,0,
600,,24th Ave W & 200th Pl SW,,47.81637951180041,-122.26552780710595,,,0,,0,
602,,28th Ave W & 201st St SW,,47.815898513647596,-122.27085952604526,,,0,,0,
603,,29th Ave W & 232nd St SW,,47.788631461034065,-122.27182470105177,,,0,,0,
604,,29th Ave W & 228th St SW,,47.790408184140105,-122.27182923206712,,,0,,0,
605,,3rd Ave N & 4th Ave N,,47.81539734612271,-122.3761260702345,,,0,,0,
606,,3rd Ave N & Bell St,,47.81259345381538,-122.37847281207749,,,0,,0,
607,,3rd Ave N & Giltner Ln,,47.817221463216256,-122.37465372708095,,,0,,0,
608,,3rd Ave N & Daley St,,47.81365834296914,-122.37758863397566,,,0,,0,
609,,3rd Ave S & James St,,47.810431314828726,-122.38019938891664,,,0,,0,
610,,33rd Ave W & 188th St SW,,47.82992589674342,-122.27762943745361,,,0,,0,
611,,35th Ave W & 156th St SW,,47.85893015697338,-122.28022695559547,,,0,,0,
612,,35th Ave SE & 156th St SE,,47.856501362642845,-122.18681977931587,,,0,,0,
613,,35th Ave W & 158th St SW,,47.85560821011938,-122.28012599754814,,,0,,0,
614,,35th Ave W & 148th St SW,,47.86336534629082,-122.28032643911139,,,0,,0,
615,,35th Ave SE & 164th St SE,,47.84861447020028,-122.186462974338,,,0,,0,
616,,36th Ave W & 166th Pl SW,,47.847797920670516,-122.28174084912699,,,0,,0,
617,,36th Ave W & 172nd St SW,,47.843022175323206,-122.28168470175216,,,0,,0,
619,,36th Ave W & 184th St SW (farside),,47.83229273158438,-122.28148657449941,,,0,,0,
623,,36th Ave W & 176th Pl SW,,47.838910051916436,-122.28162268136181,,,0,,0,
624,,39th Ave SE & NE 204th Pl,,47.77645287009295,-122.18002873990783,,,0,,0,
629,,4th Ave W & 213th Pl SW,,47.80503389713444,-122.23833221107947,,,0,,0,
630,,4th Ave W & 216th St SW,,47.802556027864306,-122.23826505725104,,,0,,0,
634,,4th Ave & Union St,,47.609374790635236,-122.3357750990526,,,0,,0,
635,,4th Ave S & S Washington St,,47.60143770729961,-122.32882826939749,,,0,,0,
638,,4th Ave W & 219th Pl SW,,47.79913634124786,-122.23830668264681,,,0,,0,
639,,4th St & Alder St,,47.862852687864255,-121.81636353378696,,,0,,0,
640,,4th Ave S & S Jackson St,,47.59883003020174,-122.32883036420805,,,0,,0,
641,,4th Ave & Seneca St,,47.607375329991,-122.33394551177736,,,0,,0,
645,,44th Ave W & 172nd St SW,,47.842943494805326,-122.29239851745491,,,0,,0,
646,,44th Ave W & 174th Pl SW,,47.84085958482559,-122.29240091546714,,,0,,0,
647,,44th Ave W & 179th St SW,,47.8368263826757,-122.29238506720539,,,0,,0,
648,,44th Ave W & 184th St SW,,47.8321490526687,-122.29235108270626,,,0,,0,
649,,44th Ave W & 188th St SW,,47.828464573507695,-122.2922961980496,,,0,,0,
650,,44th Ave W & 192nd St SW,,47.82457643019423,-122.29230073205989,,,0,,0,
651,,44th Ave W & 214th St SW,,47.80505750553716,-122.29221944105106,,,0,,0,
652,,44th Ave W & 217th St SW,,47.802277434290104,-122.29219818421464,,,0,,0,
653,,44th Ave W & 220th St SW,,47.79965628677851,-122.2921854711739,,,0,,0,
654,,44th Ave W & 226th St SW,,47.79397574636922,-122.29212330397816,,,0,,0,
655,,44th Ave W & 228th St SW,,47.792435008077206,-122.29210437133322,,,0,,0,
656,,44th Ave W & Maple Rd,,47.83419696795804,-122.2923761755032,,,0,,0,
657,,44th Ave W & Cobblestone Dr,,47.84569071674117,-122.29241480348315,,,0,,0,
658,,44th Ave W & 176th St SW,,47.838912930433764,-122.2923908883526,,,0,,0,
659,,44th Ave W & 223rd St SW,,47.79721630267628,-122.29215750990981,,,0,,0,
660,,44th Ave W & 224th St SW,,47.79590585837764,-122.29214098530129,,,0,,0,
661,,44th Ave W & 229th Pl SW,,47.79035393418002,-122.29209872114978,,,0,,0,
662,,44th Ave W & 209th St SW,,47.810588326980515,-122.29219600921544,,,0,,0,
665,,47th Ave W & Chennault Beach Rd,,47.896143016988084,-122.29730295585163,,,0,,0,
666,,47th Pl W & Harbour Pointe Blvd,,47.90432679841681,-122.2965150601587,,,0,,0,
667,,47th Ave W & 109th St SW,,47.89878762480267,-122.29569381636308,,,0,,0,
675,,48th Ave W & 233rd St SW,,47.78746598714676,-122.29750606725666,,,0,,0,
681,,5th Ave S & Elm Wy,,47.800945662856535,-122.37743786411194,,,0,,0,
682,,5th Ave S & Holly Dr,,47.80677525943797,-122.37743242471159,,,0,,0,
683,,5th Ave S & Pine St,,47.80344647393633,-122.37743095354301,,,0,,0,
685,,5th Ave & James St,,47.60358319614695,-122.32894262991385,,,0,,0,
688,,51st Ave NE & 119th Pl NE,,48.10290556754219,-122.16206173448383,,,0,,0,
689,,51st Ave NE & 123rd Pl NE,,48.10660117360482,-122.16208742212014,,,0,,0,
690,,51st Ave NE & 126th Pl NE,,48.109825097587425,-122.16212142106778,,,0,,0,
691,,51st Ave NE & 128th Pl NE,,48.11150293630651,-122.16213193268442,,,0,,0,
692,,51st Ave NE & 130th Pl NE,,48.113967284159294,-122.16217500985876,,,0,,0,
693,,51st Ave NE & 134th Pl NE,,48.11747526817248,-122.16230233105651,,,0,,0,
694,,51st Ave NE & 139th St NE,,48.12124354475838,-122.16244457404282,,,0,,0,
695,,51st Ave NE & 139th Pl NE,,48.12272072322324,-122.16249906171804,,,0,,0,
696,,51st Ave NE & 110th Pl NE,,48.094700990502474,-122.16216539418105,,,0,,0,
697,,51st Ave NE & 117th Pl NE,,48.10105736133066,-122.16208367435217,,,0,,0,
698,,51st Ave NE & 142nd Pl NE,,48.124821041790234,-122.162487727186,,,0,,0,
699,,51st Ave NE & 146th St NE,,48.128481763680895,-122.16220949439126,,,0,,0,
7,,Marine Dr NE & 23rd Ave NE,,48.054889197589304,-122.20077642399943,,,0,,0,
702,,52nd Ave W & 157th St SW,,47.856601250254556,-122.30351847897816,,,0,,0,
703,,52nd Ave W & 160th St SW,,47.85390864227193,-122.30351944624121,,,0,,0,
704,,52nd Ave W & 164th St SW,,47.85039902065895,-122.30351351643478,,,0,,0,
705,,52nd Ave W & 168th St SW,,47.846859875834454,-122.30345786982177,,,0,,0,
706,,52nd Ave W & 172nd St SW,,47.84321905272048,-122.30341971039252,,,0,,0,
707,,52nd Ave W & 176th St SW,,47.83961469860044,-122.3033174274499,,,0,,0,
708,,52nd Ave W & 188th St SW,,47.82864324758566,-122.30317311856317,,,0,,0,
709,,52nd Ave W & 208th St SW,,47.81035871252522,-122.30304946054119,,,0,,0,
710,,52nd Ave W & 212th St SW,,47.80676669152059,-122.30305344217102,,,0,,0,
711,,52nd Ave W & 216th St SW,,47.80270633127812,-122.30301565685029,,,0,,0,
712,,52nd Ave W & Hwy 99,,47.83239350437298,-122.30323064306057,,,0,,0,
713,,52nd Ave W & 169th Pl SW,,47.84572222347834,-122.30343780096257,,,0,,0,
714,,52nd Ave W & 220th St SW,,47.79948196367507,-122.30300157538173,,,0,,0,
716,,56th Ave W & 204th St SW,,47.81400880133209,-122.30853853614717,,,0,,0,
717,,56th Ave W & 208th St SW,,47.81053211163022,-122.3085291382451,,,0,,0,
718,,56th Ave W & 224th St SW,,47.7957850766249,-122.30837405863373,,,0,,0,
719,,56th Ave W & 228th St SW,,47.792165799309714,-122.30836468804294,,,0,,0,
720,,56th Ave W & 232nd St SW,,47.7888156607206,-122.30832228688527,,,0,,0,
724,,56th Ave W & 202nd St SW,,47.81599957653005,-122.30853006619928,,,0,,0,
725,,56th Ave W & 222nd Pl SW,,47.79714221997422,-122.3083841832979,,,0,,0,
726,,56th Ave W & 235th St SW,,47.785860062323316,-122.3083033182275,,,0,,0,
730,,59th Ave NE & 188th St NE,,48.16392668853239,-122.15104282433515,,,0,,0,
731,,59th Ave NE & 180th St NE,,48.157239288649386,-122.15083069225092,,,0,,0,
732,,59th Ave NE & 172nd St NE,,48.15250063775057,-122.15067256768629,,,0,,0,
733,,6th Ave S & Dayton St,,47.80993704743356,-122.3747749680518,,,0,,0,
734,,64th Ave W & 182nd St SW,,47.83413757048343,-122.31954087512078,,,0,,0,
735,,64th Ave W & 185th St SW,,47.83182600115592,-122.31954786734997,,,0,,0,
736,,64th Ave W & 188th St SW,,47.82877964616072,-122.31955007063252,,,0,,0,
737,,64th Ave W & 180th St SW,,47.8353028953329,-122.31954172486522,,,0,,0,
738,,64th Ave W & 178th Pl SW,,47.83695342005468,-122.31955242124161,,,0,,0,
739,,66th Ave W & 222nd St SW,,47.79783670782519,-122.3218494614275,,,0,,0,
740,,66th Ave W & 224th St SW,,47.79607638077897,-122.32184775584605,,,0,,0,
741,,66th Ave W & 228th St SW,,47.79253379834809,-122.32184371555113,,,0,,0,
742,,66th Ave W & 226th St SW,,47.794305036661704,-122.3218498033043,,,0,,0,
743,,67th Ave NE & 188th St NE,,48.16698748986268,-122.14037905184476,,,0,,0,
750,,67th Ave NE & 199th St NE,,48.17704104255342,-122.14040891465251,,,0,,0,
753,,68th Ave W & 196th St SW,,47.82152312945472,-122.32490747478295,,,0,,0,
754,,68th Ave W & 200th St SW,,47.817927116907555,-122.32479583801833,,,0,,0,
755,,68th Ave W & 204th St SW,,47.81425720387876,-122.32467394883015,,,0,,0,
756,,68th Ave W & 192nd Pl SW,,47.82441535606698,-122.32495000900592,,,0,,0,
757,,68th Ave W & Penny Ln,,47.827683728645155,-122.32495451443708,,,0,,0,
759,,I-5 & NE 45th St Fwy Station,,47.66163180534816,-122.32074983508454,,,0,,0,
760,,72nd Ave NW & 265th St NW,,48.23806845308439,-122.33009884550394,,,0,,0,
761,,72nd Ave NW & 268th St NW,,48.2402449445774,-122.33013759715121,,,0,,0,
762,,72nd Ave NW & 261st St NW,,48.23354843980305,-122.330004177263,,,0,,0,
763,,Edmonds P&R - Bay 2,,47.80565250217584,-122.33015302077565,,,0,,0,
764,,76th Ave W & 216th St SW,,47.803303257395875,-122.33553480533962,,,0,,0,
766,,76th Ave W & 198th St SW,,47.81926969498014,-122.33575334198393,,,0,,0,
767,,76th Ave W & 204th St SW,,47.81447999304912,-122.33571219820693,,,0,,0,
768,,76th Ave W & 212th St SW,,47.8073822042638,-122.33562044958097,,,0,,0,
769,,76th Ave W & 219th St SW,,47.800704096374716,-122.33551646846833,,,0,,0,
770,,76th Ave W & 230th St SW,,47.79071159627366,-122.33536126158019,,,0,,0,
771,,76th Ave W & 236th St SW,,47.785286144715904,-122.33528955823299,,,0,,0,
772,,76th Ave W & 244th St SW,,47.77849548593081,-122.33519460916483,,,0,,0,
773,,76th Ave W & 200th St SW,,47.81795388470324,-122.33572741019825,,,0,,0,
774,,76th Ave W & 206th St SW,,47.81264603787081,-122.33567939251232,,,0,,0,
775,,76th Ave W & 234th St SW,,47.787227161285976,-122.33531322769691,,,0,,0,
777,,8th St & Fir Ave,,47.867570599153424,-121.80970161905344,,,0,,0,
778,,8th St & Alder Ave,,47.86316405613989,-121.80978150273066,,,0,,0,
780,,84th Ave W & 214th Pl SW,,47.80538599100536,-122.34642565955828,,,0,,0,
781,,84th Ave W & 216th St SW,,47.80346701474472,-122.34639406904705,,,0,,0,
782,,84th Ave W & 218th St SW,,47.80166041644769,-122.34636576066522,,,0,,0,
783,,84th Ave W & 220th St SW,,47.80004003969039,-122.34635509794754,,,0,,0,
784,,84th Ave W & 224th St SW,,47.79621020022183,-122.34630030654577,,,0,,0,
785,,84th Ave W & 228th St SW,,47.79261065204942,-122.34624817360007,,,0,,0,
786,,84th Ave W & 230th St SW,,47.79071908317953,-122.34621739714167,,,0,,0,
787,,84th Ave W & 236th St SW,,47.7853982251994,-122.34611506096816,,,0,,0,
789,,84th Ave W & Holly Ln,,47.78836977768174,-122.34617326875535,,,0,,0,
791,,88th Ave NW & Hwy 532,,48.24013057614247,-122.35186351826256,,,0,,0,
794,,9th Ave N & Hindley Ln,,47.81999648045491,-122.36690314717764,,,0,,0,
797,,9th Ave S & Alder St,,47.80786684369052,-122.36682921140333,,,0,,0,
800,,91st Ave SE & 16th Pl SE,,47.981128838330086,-122.10871619390514,,,0,,0,
801,,91st Ave SE & 8th St SE,,47.98827748269995,-122.10864355101343,,,0,,0,
802,,96th Ave W & 220th St SW,,47.80003117208193,-122.36143707116318,,,0,,0,
803,,96th Ave W & 216th St SW,,47.80304157616553,-122.36146068981841,,,0,,0,
804,,96th Ave W & Bowdoin Wy,,47.80709999138326,-122.36144194240102,,,0,,0,
807,,Airport Rd & Admiralty Wy,,47.884612900634515,-122.25426997231475,,,0,,0,
808,,Airport Rd & E Gibson Rd,,47.88202453280283,-122.2507342992802,,,0,,0,
814,,Alderwood Mall Pkwy & 186th St SW,,47.828965257663825,-122.26834730167874,,,0,,0,
815,,Beardslee Blvd & NE 195th St,,47.76776941164718,-122.19089805363693,,,0,,0,
817,,Beverly Park Rd & 132nd St SW,,47.87902800424946,-122.28610765486853,,,0,,0,
818,,Beverly Park Rd & 134th Pl SW,,47.876622529953195,-122.28875859529671,,,0,,0,
819,,Beverly Park Rd & 49th Pl W,,47.867891180993226,-122.30021234352978,,,0,,0,
82,,Lakeview Dr & Ballinger Playfield,,47.790378025295134,-122.32881287797974,,,0,,0,
820,,Beverly Park Rd & 140th St SW,,47.87146237522812,-122.2945511434544,,,0,,0,
821,,Beverly Park Rd & Hwy 525,,47.882025283779804,-122.28067280173791,,,0,,0,
823,,Beverly Park Rd & 142nd Pl SW,,47.86959284942829,-122.29665817620794,,,0,,0,
824,,Beverly Park Rd & 47th Pl W,,47.874527563804136,-122.29113682905411,,,0,,0,
825,,Bickford Ave & 87th Ave SE,,47.949074641641566,-122.11411245310565,,,0,,0,
83,,52nd Ave W & 204th St SW,,47.813972293681516,-122.30307458480713,,,0,,0,
834,,Broadway St & E Gilman Ave,,48.19957576118016,-122.12505703291058,,,0,,0,
837,,Brook Blvd & 175th St SE,,47.839728546997634,-122.20162138151503,,,0,,0,
838,,Brook Blvd & 180th St SE,,47.83512008214741,-122.20476971805542,,,0,,0,
839,,Brook Blvd & 177th St SE,,47.83698459927445,-122.20431002054538,,,0,,0,
840,,S Stillaguamish Ave & 207th St NE,,48.184600284619776,-122.11798193603026,,,0,,0,
842,,Cedar Wy & 236th St SW,,47.78540261139788,-122.29075924516378,,,0,,0,
844,,Cedar Wy & 232nd St SW,,47.78804983961057,-122.29152125175824,,,0,,0,
846,,Chennault Beach Rd & Harbour Reach Dr,,47.89506551875793,-122.30029360135991,,,0,,0,
855,,Cypress Wy & Larch Wy,,47.80818304698052,-122.26011587655647,,,0,,0,
856,,Cypress Wy & 205th St SW,,47.81201653721265,-122.25921598047448,,,0,,0,
857,,Ave D & 13th St,,47.928100641651604,-122.09875174195413,,,0,,0,
858,,Ave D & Third St,,47.91486015482915,-122.0982851096615,,,0,,0,
859,,Ave D & Fifth St,,47.917804198487694,-122.09809606697738,,,0,,0,
860,,Ave D & Tenth St,,47.923653231436674,-122.09777814982482,,,0,,0,
861,,Snohomish P&R - Bay 2,,47.9315871597963,-122.10033433801219,,,0,,0,
864,,Evergreen Wy & 50th St SE,,47.95222692894416,-122.21332955516603,,,0,,0,
866,,Evergreen Wy & 75th St SE,,47.93029986344747,-122.22039403867606,,,0,,0,
872,,Evergreen Wy & Madison St,,47.93672370931281,-122.21861189432828,,,0,,0,
876,,Evergreen Wy & Berkshire Dr,,47.94077836891115,-122.21752490796769,,,0,,0,
877,,Evergreen Wy & 79th Pl SE,,47.92607862603814,-122.22390747110539,,,0,,0,
880,,Firdale Ave & 240th Pl SW,,47.781588337986385,-122.36635324015951,,,0,,0,
881,,Firdale Ave & 243rd Pl SW,,47.77884448845862,-122.3634245175636,,,0,,0,
882,,S French Ave & E Highland Dr,,48.18796455943414,-122.12262117548842,,,0,,0,
885,,S French Ave & E Maple St,,48.19124116696633,-122.12259667113703,,,0,,0,
886,,Givens Ave & Fir St,,48.24856089888588,-121.60327927413711,,,0,,0,
887,,Grade Rd & Hwy 92,,48.030053088291986,-122.07168186896538,,,0,,0,
888,,Grade Rd & 24th Pl NE,,48.01902790089626,-122.06281905647313,,,0,,0,
889,,Grade Rd & 28th Pl NE,,48.02411241834627,-122.06397418601439,,,0,,0,
890,,Granite Falls P&R &,,48.080459518608365,-121.96907472663037,,,0,,0,
894,,Harbour Pointe Blvd & 47th Pl W,,47.904928617542694,-122.29598156719825,,,0,,0,
895,,Harbour Pointe Blvd SW & 52nd Pl W,,47.886060842923236,-122.30457540572105,,,0,,0,
896,,Harbour Pointe Blvd & N Grove Dr,,47.893859047656555,-122.31116131975438,,,0,,0,
897,,Harbour Pointe Blvd & Double Eagle Dr,,47.88791052119665,-122.31040852068259,,,0,,0,
898,,Harbour Pointe Blvd & Harbour Heights Pkwy,,47.89552697178878,-122.30812255516538,,,0,,0,
899,,Hubbard Rd & 210th St SW,,47.808923410077725,-122.24288643352428,,,0,,0,
9,,Marine Dr NE & Meridian Ave N,,48.03873336505191,-122.23247468565266,,,0,,0,
904,,I-5 & 116th St NE Flyer Stop,,48.1007061732022,-122.18373603722596,,,0,,0,
905,,I-5 & 4th St Flyer Stop,,48.05211965570696,-122.18343347383949,,,0,,0,
906,,Lakeview Dr & Ballinger Park,,47.788229420453035,-122.32684268135105,,,0,,0,
907,,Lakeview Dr & Ballinger Playfield,,47.79043657286426,-122.32852974348936,,,0,,0,
910,,Marine Dr & Warm Beach Senior Ctr,,48.18151208308572,-122.35150307456783,,,0,,0,
911,,Marine Dr & Florence Rd,,48.21863215847665,-122.33448926515217,,,0,,0,
912,,Marine Dr & Norman Rd,,48.213194967380744,-122.33576227584466,,,0,,0,
913,,Marine Dr & 226th St NW,,48.202615274998955,-122.33778291750073,,,0,,0,
914,,Marine Dr & 233rd St NW,,48.2099853410559,-122.33652175036782,,,0,,0,
915,,Marine Dr & Happy Hollow Rd,,48.18847771763089,-122.34013730135531,,,0,,0,
916,,Marine Dr & 201st St NW,,48.17908726223869,-122.35178821000278,,,0,,0,
917,,Marine Dr & Warm Beach Conf Ctr,,48.18445974929252,-122.34670275400589,,,0,,0,
918,,Mill Creek Blvd & 161st St SE,,47.85262590950192,-122.22077024671222,,,0,,0,
919,,Mill Creek Blvd & W Evergreen Ave,,47.865877181854,-122.21081628819591,,,0,,0,
920,,Mill Creek Blvd & Juniper Pl,,47.861121226392555,-122.21503302186638,,,0,,0,
926,,Mountain Loop Hwy & Alvord St,,48.251797463766536,-121.6009715759801,,,0,,0,
927,,Emens Ave & Seeman St,,48.254880463236674,-121.60154718571225,,,0,,0,
929,,Stanwood I P&R - Bay 2,,48.23839559152383,-122.24355254636167,,,0,,0,
930,,N Olympic Ave & E 2nd St,,48.193845417072204,-122.12629506563043,,,0,,0,
933,,S Olympic Ave & E Jackson St,,48.18873319413574,-122.12644541706314,,,0,,0,
934,,Olympic View Dr & 170th Pl SW,,47.84463646525996,-122.31933703541753,,,0,,0,
940,,Olympic View Dr & 172nd St SW,,47.84308251890262,-122.32159779067267,,,0,,0,
942,,Puget Park Dr & 137th St SE,,47.87378745432822,-122.15410693727425,,,0,,0,
943,,Rucker Ave & 33rd St,,47.97365732987857,-122.21104774551694,,,0,,0,
944,,Rucker Ave & 35th St,,47.971490053169354,-122.21092054910847,,,0,,0,
946,,Rucker Ave & 40th St,,47.9651103360369,-122.21064434158838,,,0,,0,
950,,Shoultes Rd & 100th St NE,,48.086278144410166,-122.17091406693919,,,0,,0,
951,,Shoultes Rd & 103rd Pl NE,,48.08891786726489,-122.16672247155387,,,0,,0,
953,,Smokey Point Blvd & 177th Pl NE,,48.15765813611712,-122.18280803567322,,,0,,0,
954,,Smokey Point Blvd & 152nd St NE,,48.134509214322215,-122.1830617005463,,,0,,0,
955,,Smokey Point Blvd & 168th St NE,,48.14895559080552,-122.18282579741577,,,0,,0,
958,,Smokey Point Blvd & 183rd Pl NE,,48.163158180951406,-122.18280057865074,,,0,,0,
959,,Smokey Point Blvd & 156th St NE,,48.138371029127924,-122.18294170609266,,,0,,0,
960,,Smokey Point Blvd & 165th Pl NE,,48.14572558877462,-122.182843575311,,,0,,0,
963,,Hwy 525 & 80th St SW,,47.92597146854497,-122.30016667493548,,,0,,0,
964,,Hwy 525 & 84th St SW,,47.92271276125015,-122.30005385989767,,,0,,0,
965,,Hwy 525 & 92nd St SW,,47.91534530610899,-122.29747523989647,,,0,,0,
966,,Hwy 525 & Beverly Park Rd,,47.883296967526555,-122.2802844410401,,,0,,0,
967,,Hwy 525 & Clover Ln,,47.93352982069883,-122.30623606899596,,,0,,0,
968,,Hwy 525 & Goat Trail Rd,,47.93984644439882,-122.3056570152018,,,0,,0,
969,,Hwy 525 & Harbour Pointe Blvd SW,,47.89035911355073,-122.28512933560833,,,0,,0,
970,,Hwy 525 & Lincoln Wy,,47.873970440355684,-122.27625808646171,,,0,,0,
972,,Hwy 525 & 15th Pl,,47.936620403845765,-122.3059895150102,,,0,,0,
973,,Hwy 525 & 76th St SW,,47.92892665040635,-122.30107052866984,,,0,,0,
974,,Hwy 525 & Chennault Beach Rd,,47.89945088589647,-122.29141902097086,,,0,,0,
975,,Hwy 525 & Harbour Pointe Blvd,,47.905493341591026,-122.29298395435043,,,0,,0,
977,,Hwy 527 & 180th St SE,,47.83500846215595,-122.21085889607812,,,0,,0,
979,,Hwy 527 & 186th Pl SE,,47.82858262481179,-122.20894127370372,,,0,,0,
980,,Hwy 527 & Reder Wy,,47.76274903290745,-122.20739095835391,,,0,,0,
981,,Hwy 527 & 189th Pl SE,,47.82634463897703,-122.20807975733894,,,0,,0,
982,,Hwy 527 & 192nd St SE,,47.824174339743344,-122.2072893243858,,,0,,0,
983,,Hwy 527 & 196th St SE,,47.82053827687557,-122.20731506029851,,,0,,0,
984,,Hwy 527 & 208th St SE,,47.80992576955728,-122.20742857673045,,,0,,0,
985,,Hwy 527 & 214th St SE,,47.8044376472316,-122.20824359927849,,,0,,0,
986,,Hwy 527 & 220th St SE,,47.79900970648899,-122.21157090096594,,,0,,0,
987,,Hwy 527 & Mill Creek Rd,,47.84983036063796,-122.21750584501136,,,0,,0,
988,,Hwy 527 & Seattle Hill Rd,,47.84471312325367,-122.21576432235723,,,0,,0,
989,,Hwy 527 & 228th St SE,,47.790689568384735,-122.21711119074746,,,0,,0,
990,,Hwy 527 & 201st Pl SE,,47.814933424183124,-122.20734966083212,,,0,,0,
991,,Hwy 527 & 240th St SE,,47.780599405134495,-122.21959195949248,,,0,,0,
992,,Hwy 527 & 234th St SE,,47.783284915166064,-122.22017227185745,,,0,,0,
993,,Hwy 530 & Randall St,,48.256927357661034,-121.60168862717292,,,0,,0,
994,,Hwy 9 & Lundeen Pkwy,,48.013572463916006,-122.10796482662558,,,0,,0,
995,,Hwy 9 & Hwy 204,,48.00346587561395,-122.10627319956141,,,0,,0,
997,,Hwy 99 & 60th Ave W,,47.82513635604784,-122.31145707628814,,,0,,0,
998,,Hwy 99 & 40th Ave W,,47.85963882556803,-122.28596706085025,,,0,,0,
