stop_id,stop_code,stop_name,stop_desc,stop_lat,stop_lon,zone_id,stop_url,location_type,parent_station,wheelchair_boarding,stop_direction
1,,Marine Dr NE & 27th Ave NE,,48.05583124760175,-122.1953375539729,,,0,,0,
10,,Ellison James Dr & Steve Williams Dr,,48.069306668726405,-122.27640503030365,,,0,,0,
1000,,Hwy 99 & 148th St SW,,47.86476833997397,-122.28126207856891,,,0,,0,
1001,,Hwy 99 & 156th St SW,,47.85814503369381,-122.28743260444658,,,0,,0,
1002,,Hwy 99 & 44th Ave W,,47.85151499525252,-122.29259925111641,,,0,,0,
1003,,Hwy 99 & 168th St SW,,47.84723250509186,-122.29428308439174,,,0,,0,
1004,,Hwy 99 & 174th Pl SW,,47.841286937894,-122.29757733832088,,,0,,0,
1005,,Hwy 99 & 176th St SW,,47.84008638086021,-122.29861454260929,,,0,,0,
1006,,Hwy 99 & 188th St SW,,47.82924209220646,-122.30798276031955,,,0,,0,
1007,,Hwy 99 & 196th St SW,,47.82180768526234,-122.31441564310089,,,0,,0,
1008,,Hwy 99 & 200th St SW,,47.81815850205262,-122.31755599427699,,,0,,0,
1009,,Hwy 99 & 204th St SW,,47.814403485874486,-122.3208149919056,,,0,,0,
1010,,Hwy 99 & 208th St SW,,47.81078109576099,-122.32356852294222,,,0,,0,
1011,,Hwy 99 & 212th St SW,,47.80733772799007,-122.32604598181324,,,0,,0,
1012,,Hwy 99 & 216th St SW,,47.80370869147217,-122.3286683459298,,,0,,0,
1013,,Hwy 99 & 220th St SW,,47.8001377938338,-122.3312431886028,,,0,,0,
1014,,Hwy 99 & 230th St SW,,47.79082839733657,-122.33794435248969,,,0,,0,
1015,,Hwy 99 & 234th St SW,,47.7884171735325,-122.33968498462082,,,0,,0,
1016,,Hwy 99 & 238th St SW,,47.78405437325847,-122.34282112726488,,,0,,0,
1017,,Hwy 99 & Edmonds Wy,,47.77844128711185,-122.3461521558521,,,0,,0,
1018,,Hwy 99 & 52nd Ave W,,47.834851495043985,-122.30313748503416,,,0,,0,
1020,,Hwy 99 & Lincoln Wy,,47.87411867131983,-122.27254543325546,,,0,,0,
1021,,Hwy 99 & N Manor Wy,,47.88063557737816,-122.26648230184253,,,0,,0,
1022,,Hwy 99 & 76th Ave W,,47.794917140675274,-122.33499478192354,,,0,,0,
1023,,Hwy 99 & 240th St SW,,47.78124799211335,-122.34499322645458,,,0,,0,
1024,,Hwy 99 & Gibson Rd,,47.88264442447977,-122.26458955358359,,,0,,0,
1026,,State Ave & 5th St,,48.05295969589784,-122.17680191066911,,,0,,0,
1027,,State Ave & 7th St,,48.0547255468736,-122.17679064218721,,,0,,0,
1028,,State Ave & 76th St NE,,48.06517546730325,-122.17671105308614,,,0,,0,
1029,,State Ave & 80th St NE,,48.068684707918415,-122.17673291664613,,,0,,0,
1030,,State Ave & 84th St NE,,48.0723085129469,-122.17633639586589,,,0,,0,
1031,,State Ave & 88th St NE,,48.075986448952285,-122.17576530380516,,,0,,0,
1032,,State Ave & 92nd St NE,,48.07948906827228,-122.1747108560717,,,0,,0,
1033,,State Ave & Grove St,,48.06155374962274,-122.17669444357799,,,0,,0,
1034,,State Ave & 1st St,,48.048889470952076,-122.1769208291894,,,0,,0,
1035,,State Ave & 10th St,,48.05787067594201,-122.1767662152362,,,0,,0,
1037,,S Stillaguamish Ave & Tveit Rd,,48.1887555981147,-122.11758955769646,,,0,,0,
1039,,Village Green Dr & 21st Dr SE,,47.86617204466306,-122.20430456189959,,,0,,0,
1040,,Village Green Dr & Trillium Blvd SE,,47.86723819251003,-122.20776785977658,,,0,,0,
1044,,Village Green Dr & Cottonwood Ln,,47.863763943733,-122.19472676603911,,,0,,0,
1045,,Village Green Dr & Huckleberry Dr SE,,47.86497488920575,-122.19618879789262,,,0,,0,
1049,,N West Ave & W 5th Ave,,48.197466240403244,-122.12808793784158,,,0,,0,
1053,,10th St & Orchard Ave,,47.85309091879018,-121.69194938243685,,,0,,0,
1054,,100th Ave W & 232nd St SW,,47.78836210618098,-122.3668912040691,,,0,,0,
1056,,100th Ave W & Edmonds Wy,,47.79003187363745,-122.36689989786639,,,0,,0,
1058,,100th Ave W & 238th St SW,,47.783371542263,-122.36669480797372,,,0,,0,
1070,,179th Ave SE & Stanton St SE,,47.86017844900215,-121.99077390068561,,,0,,0,
1071,,179th Ave SE & 154th St SE,,47.857631806901956,-121.99072920671293,,,0,,0,
1072,,179th Ave SE & 157th Pl SE,,47.8542514864174,-121.99070255015606,,,0,,0,
1073,,179th Ave SE & 147th St SE,,47.864277687823076,-121.99074329564458,,,0,,0,
1079,,2nd Ave & Stewart St,,47.610604514602116,-122.34023850199158,,,0,,0,
1084,,20th Ave SE & 222nd St SE,,47.79688506789626,-122.20493845464036,,,0,,0,
1085,,23rd Ave SE & 168th St SE,,47.84540290862913,-122.20196270559626,,,0,,0,
1087,,23rd Ave SE & 171st Pl SE,,47.84266154768515,-122.20191878822057,,,0,,0,
1093,,3rd Ave N & Edmonds St,,47.8132557295354,-122.37816282530831,,,0,,0,
1094,,3rd Ave S & James St,,47.810260702945406,-122.38044666896893,,,0,,0,
1095,,3rd Ave N & 4th Ave N,,47.81486991478626,-122.37680648856107,,,0,,0,
1096,,3rd Ave N & Sater Ln,,47.8166722233079,-122.37532539318515,,,0,,0,
1097,,35th Ave W & 148th St SW,,47.86352671121597,-122.28057542405752,,,0,,0,
1098,,35th Ave W & 156th St SW,,47.85676423676548,-122.28042718172317,,,0,,0,
1099,,35th Ave SE & 156th St SE,,47.856665575721635,-122.18707665681622,,,0,,0,
1100,,35th Ave SE & 164th St SE,,47.84881046767891,-122.18681432903871,,,0,,0,
1101,,36th Ave W & 165th Pl SW,,47.84926713651575,-122.28199375531214,,,0,,0,
1102,,36th Ave W & 167th Pl SW,,47.84637190181958,-122.28197388130309,,,0,,0,
1103,,36th Ave W & 172nd St SW,,47.84271198793926,-122.28192855245975,,,0,,0,
1104,,36th Ave W & 176th Pl SW,,47.83852042804775,-122.28186021934498,,,0,,0,
1107,,36th Ave W & 180th Pl SW,,47.834799075005705,-122.28190277917172,,,0,,0,
1110,,39th Ave SE & 243rd Pl SE,,47.777513908088864,-122.18049967254011,,,0,,0,
1114,,4th Ave W & 213th Pl SW,,47.80469355009061,-122.23858346228086,,,0,,0,
1115,,4th Ave W & 216th St SW,,47.802114363786096,-122.23850541125591,,,0,,0,
1116,,4th Ave W & 219th Pl SW,,47.79908674103725,-122.23854950787813,,,0,,0,
1117,,4th St & Date St,,47.865288025221645,-121.81659718599495,,,0,,0,
1120,,4th Ave W & Hubbard Rd,,47.80671633545492,-122.23819872737886,,,0,,0,
1123,,4th St & Main St,,47.86259828879448,-121.816615374936,,,0,,0,
1126,,44th Ave W & 208th St SW,,47.81036862023915,-122.29243812168538,,,0,,0,
1127,,44th Ave W & 168th St SW,,47.84601941011541,-122.29265623639252,,,0,,0,
1128,,44th Ave W & 176th St SW,,47.83899478157643,-122.29263755425703,,,0,,0,
1129,,44th Ave W & 180th St SW,,47.83535084744288,-122.29262858020199,,,0,,0,
1130,,44th Ave W & 181st Pl SW,,47.83379904671139,-122.29261745022023,,,0,,0,
1131,,44th Ave W & 183rd Pl SW,,47.832230955927635,-122.29259364566877,,,0,,0,
1133,,44th Ave W & 212th St SW,,47.80600860846249,-122.29246192248947,,,0,,0,
1134,,44th Ave W & 221st Pl SW,,47.79921999118891,-122.2924255066695,,,0,,0,
1135,,44th Ave W & 222nd St SW,,47.79730089558178,-122.29240405423069,,,0,,0,
1136,,44th Ave W & 224th St SW,,47.79585066177181,-122.29238358958607,,,0,,0,
1137,,44th Ave W & 228th St SW,,47.791631214200905,-122.2923503094019,,,0,,0,
1138,,44th Ave W & 230th Pl SW,,47.789352439704025,-122.29215192306295,,,0,,0,
1140,,44th Ave W & 172nd Pl SW,,47.8423453797289,-122.29264233895584,,,0,,0,
1141,,44th Ave W & 174th Pl SW,,47.840700231353246,-122.2926407958725,,,0,,0,
1142,,44th Ave W & 192nd St SW,,47.82488314473084,-122.29254551851332,,,0,,0,
1143,,44th Ave W & 189th Pl SW,,47.82646525323447,-122.29254528280204,,,0,,0,
1144,,44th Ave W & 217th St SW,,47.801761598647886,-122.29244006284021,,,0,,0,
1145,,44th Ave W & 226th St SW,,47.793432604773784,-122.29235623807313,,,0,,0,
1146,,44th Ave W & 186th St SW,,47.830462722591854,-122.29256827793303,,,0,,0,
1148,,47th Ave W & 107th St SW,,47.90089111588293,-122.29458708570708,,,0,,0,
1149,,47th Ave W & 109th St SW,,47.89888437129607,-122.29584741406649,,,0,,0,
1150,,47th Pl W & Harbour Pointe Blvd,,47.90444664838735,-122.29679166428534,,,0,,0,
1155,,48th Ave W & 194th St SW,,47.822571047382795,-122.29795236073065,,,0,,0,
1156,,48th Ave W & 196th St SW,,47.82027908124857,-122.29792829857229,,,0,,0,
1160,,48th Ave W & 228th St SW,,47.791690736433075,-122.2977677761397,,,0,,0,
1161,,48th Ave W & 233rd St SW,,47.78712007981043,-122.29775262301222,,,0,,0,
1166,,5th Ave S & Dayton St,,47.80944758202737,-122.37771962380914,,,0,,0,
1167,,5th Ave S & Howell Wy,,47.80613864376045,-122.37766988320158,,,0,,0,
1168,,5th Ave S & Pine St,,47.80333896390873,-122.37767601908553,,,0,,0,
1170,,5th Ave S & Elm Wy,,47.80021300494763,-122.37768057431981,,,0,,0,
1173,,51st Ave NE & 146th St NE,,48.12838563671159,-122.1624609312079,,,0,,0,
1174,,51st Ave NE & 110th Pl NE,,48.094955942026516,-122.16240525437567,,,0,,0,
1175,,51st Ave NE & 130th Pl NE,,48.11344366409513,-122.16240716127349,,,0,,0,
1176,,51st Ave NE & 135th Pl NE,,48.11833577765893,-122.16257429827917,,,0,,0,
1177,,51st Ave NE & 139th St NE,,48.12088447607641,-122.16267281146618,,,0,,0,
1178,,51st Ave NE & 117th Pl NE,,48.10130678350828,-122.16232751442729,,,0,,0,
1179,,51st Ave NE & 123rd Pl NE,,48.10646123868013,-122.16233352904796,,,0,,0,
1180,,51st Ave NE & 128th Pl NE,,48.111294477720904,-122.16237629563108,,,0,,0,
1181,,51st Ave NE & 126th Pl NE,,48.109375388179835,-122.16236364830415,,,0,,0,
1182,,51st Ave NE & 142nd Pl NE,,48.12491144017551,-122.16273167337495,,,0,,0,
1183,,51st Ave NE & 119th Pl NE,,48.102998708127,-122.16230564688315,,,0,,0,
1184,,51st Ave NE & 139th Pl NE,,48.12243008336522,-122.16273726088448,,,0,,0,
1185,,52nd Ave W & 148th St SW,,47.864105705744834,-122.3037519261981,,,0,,0,
1187,,52nd Ave W & 156th St SW,,47.857165589109215,-122.30377079888284,,,0,,0,
1188,,52nd Ave W & 160th St SW,,47.85348049539569,-122.30376394348208,,,0,,0,
1191,,52nd Ave W & 204th St SW,,47.81350303182946,-122.30331773129801,,,0,,0,
1192,,52nd Ave W & 212th St SW,,47.80616312229642,-122.30329274653403,,,0,,0,
1193,,52nd Ave W & 217th St SW,,47.80266476405594,-122.30326273831413,,,0,,0,
1196,,52nd Ave W & 208th St SW,,47.810418613179145,-122.30329538555429,,,0,,0,
1197,,52nd Ave W & 164th St SW,,47.84995716889712,-122.30375760808366,,,0,,0,
12,,Totem Beach Rd & Senior Center Driveway,,48.0615860360142,-122.27767787807821,,,0,,0,
1202,,56th Ave W & 224th St SW,,47.795477624599435,-122.30861353775046,,,0,,0,
1203,,56th Ave W & 234th St SW,,47.786270900112775,-122.30855097954397,,,0,,0,
1206,,56th Ave W & 222nd Pl SW,,47.797180234076365,-122.30862535992962,,,0,,0,
1207,,56th Ave W & 232nd St SW,,47.788700128545436,-122.30856312527565,,,0,,0,
1209,,56th Ave W & 228th St SW,,47.79183093760305,-122.30860337066113,,,0,,0,
1222,,66th Ave W & 220th St SW,,47.79900164855187,-122.32209045570266,,,0,,0,
1223,,66th Ave W & 222nd St SW,,47.79744420508293,-122.32209049817256,,,0,,0,
1224,,66th Ave W & 224th St SW,,47.79558783862208,-122.32209416538497,,,0,,0,
1225,,66th Ave W & 226th St SW,,47.793783656042734,-122.3220911923718,,,0,,0,
1230,,67th Ave NE & Grove St,,48.06415729084209,-122.14093918420369,,,0,,0,
1232,,67th Ave NE & 69th Pl NE,,48.05779063176984,-122.1409618434558,,,0,,0,
1233,,67th Ave NE & 72nd St NE,,48.060337937518646,-122.14094461667217,,,0,,0,
1240,,68th Ave W & 204th St SW,,47.813840133449126,-122.32490619221663,,,0,,0,
1242,,Edmonds P&R - Bay 1,,47.805723766712674,-122.33015507852505,,,0,,0,
1243,,72nd Ave NW & 261st St NW,,48.23331770342435,-122.33024780059961,,,0,,0,
1244,,72nd Ave NW & 267th Pl NW,,48.23912055729454,-122.33036753772015,,,0,,0,
1245,,72nd Ave NW & 265th St NW,,48.23751161829808,-122.3303288886407,,,0,,0,
1246,,72nd Ave NW & 268th St NW,,48.24038980031043,-122.33038398180032,,,0,,0,
1251,,76th Ave W & 196th St SW,,47.82035769751638,-122.33600473221844,,,0,,0,
1252,,76th Ave W & 200th St SW,,47.8175614068456,-122.33596436591405,,,0,,0,
1253,,76th Ave W & 203rd St SW,,47.81456454532986,-122.33595482642666,,,0,,0,
1254,,76th Ave W & 206th St SW,,47.81199585821628,-122.33591292427715,,,0,,0,
1255,,76th Ave W & 212th St SW,,47.80649904458697,-122.3358472053965,,,0,,0,
1256,,76th Ave W & 218th St SW,,47.80129024134059,-122.33577356828962,,,0,,0,
1257,,76th Ave W & 230th St SW,,47.79034926869513,-122.33559896908744,,,0,,0,
1258,,76th Ave W & 234th St SW,,47.78672230462406,-122.33554679074436,,,0,,0,
1259,,76th Ave W & 236th St SW,,47.78482508963009,-122.33552845002495,,,0,,0,
1260,,76th Ave W & 238th Pl SW,,47.782983121333565,-122.3354791643171,,,0,,0,
1261,,76th Ave W & 242nd St SW,,47.779333906617836,-122.33545076562042,,,0,,0,
1263,,76th Ave W & 208th St SW,,47.81023864900453,-122.33588233776288,,,0,,0,
1264,,76th Ave W & 216th St SW,,47.80315746410304,-122.33577884491585,,,0,,0,
1266,,8th Ave S & Main St,,47.81027231334022,-122.36963168196355,,,0,,0,
1271,,84th Ave W & 216th St SW,,47.80299508115694,-122.34662448915248,,,0,,0,
1272,,84th Ave W & 218th St SW,,47.80122674810597,-122.34660542947638,,,0,,0,
1273,,84th Ave W & 220th St SW,,47.7994308976598,-122.34659370717,,,0,,0,
1274,,84th Ave W & 228th St SW,,47.792111255102775,-122.34648181440983,,,0,,0,
1275,,84th Ave W & 230th St SW,,47.79033206458654,-122.3464543089923,,,0,,0,
1276,,84th Ave W & Bowdoin Wy,,47.80629290806238,-122.3466841309744,,,0,,0,
1277,,84th Ave W & Holly Ln,,47.78806230015814,-122.34640842236074,,,0,,0,
1278,,84th Ave W & 224th St SW,,47.79611920253678,-122.34654588238902,,,0,,0,
1279,,84th Ave W & 236th St SW,,47.78521134894656,-122.34635372007669,,,0,,0,
1280,,84th Ave W & 238th St SW,,47.78353652866707,-122.34631299416358,,,0,,0,
1282,,88th Ave NW & 270th St NW,,48.241223794491006,-122.35212977848595,,,0,,0,
1283,,9th Ave S & Alder St,,47.80777032011695,-122.36707464422214,,,0,,0,
1285,,9th Ave S & Dayton St,,47.80948974932266,-122.36706039411294,,,0,,0,
1286,,9th Ave N & Hindley Ln,,47.81944759663664,-122.36714339143953,,,0,,0,
1288,,91st Ave SE & 12th Pl SE,,47.98466961775282,-122.1088607842955,,,0,,0,
1289,,91st Ave SE & 17th St SE,,47.980389046620765,-122.10891844851743,,,0,,0,
1290,,91st Ave SE & 8th St SE,,47.98870568937866,-122.10884608517448,,,0,,0,
1292,,96th Ave W & Walnut St,,47.80698434737036,-122.36168274729744,,,0,,0,
1293,,96th Ave W & 220th St SW,,47.799852432345446,-122.36168005287074,,,0,,0,
1294,,96th Ave W & 216th St SW,,47.803202819661145,-122.36170556911875,,,0,,0,
1299,,Airport Rd & Admiralty Wy,,47.88391170908604,-122.25398984799276,,,0,,0,
13,,Totem Beach Rd & 70th St NW,,48.05925129090594,-122.27473720119477,,,0,,0,
1301,,Airport Rd & Hwy 99,,47.88878341027502,-122.25801260989952,,,0,,0,
1302,,S Alder Ave & E Stanley St,,48.083134836345195,-121.96412954630529,,,0,,0,
1303,,Alderwood Mall Pkwy & 184th St SW,,47.8311796430773,-122.26865295340319,,,0,,0,
1305,,Alderwood Mall Pkwy & 186th St SW,,47.82857535428775,-122.26860931639486,,,0,,0,
1307,,Beverly Park Rd & 138th Pl SW,,47.8726858076213,-122.29343643152522,,,0,,0,
1308,,Beverly Park Rd & 49th Pl W,,47.86767800209767,-122.30101314227923,,,0,,0,
1309,,Beverly Park Rd & Harbour Heights Rd,,47.87628257765641,-122.28940113478005,,,0,,0,
1310,,Beverly Park Rd & Hwy 525,,47.88215592174056,-122.28074982366294,,,0,,0,
1312,,Beverly Park Rd & 47th Pl W,,47.87460787094137,-122.29128988311903,,,0,,0,
1313,,Beverly Park Rd & 132nd St SW,,47.87887197251978,-122.2865190082813,,,0,,0,
1314,,Bickford Ave & 52nd St SE,,47.94891452055983,-122.11421051526375,,,0,,0,
1316,,Brier Rd & 232nd St SW,,47.78890908703396,-122.27437942401724,,,0,,0,
1318,,Broadway & 14th St,,47.99870916644823,-122.20123753714657,,,0,,0,
1328,,Broadway & Tower St,,48.006140958436724,-122.19720563855368,,,0,,0,
1329,,Brook Blvd & Palomino Dr,,47.83712517873964,-122.20447663843854,,,0,,0,
1330,,Brook Blvd & 175th St SE,,47.8393239813527,-122.20220529790065,,,0,,0,
1332,,Cedar Wy & 232nd St SW,,47.78798662917087,-122.2917473198503,,,0,,0,
1347,,Cypress Wy & 209th Pl SW,,47.80858586718187,-122.26035489850108,,,0,,0,
1348,,Cypress Wy & 206th St SW,,47.81171116512579,-122.25973674501837,,,0,,0,
1349,,Snohomish P&R - Bay 1,,47.931398162299054,-122.10031746820812,,,0,,0,
1350,,Ave D & Fifth St,,47.917420126949,-122.09836402579066,,,0,,0,
1351,,Ave D & Bonneville Ave,,47.92282771501152,-122.0980475843867,,,0,,0,
1352,,Ave D & Third St,,47.9149918982787,-122.09852080437925,,,0,,0,
1353,,Ave D & 13th St,,47.92670572905002,-122.09819544870201,,,0,,0,
1354,,S Emens Ave & Darrington St,,48.24931877007689,-121.60227267270741,,,0,,0,
1367,,Evergreen Wy & 79th Pl SE,,47.92557674240965,-122.22482000685162,,,0,,0,
1379,,Firdale Ave & 243rd Pl SW,,47.778180028821616,-122.36267267985428,,,0,,0,
1380,,Firdale Ave & 240th Pl SW,,47.781085318603644,-122.36624073436045,,,0,,0,
1385,,Grade Rd & 24th Pl NE,,48.018907057463316,-122.0630940711394,,,0,,0,
1386,,Grade Rd & 29th Pl NE,,48.02435990298484,-122.06441740454078,,,0,,0,
1387,,Grade Rd & Hwy 92,,48.030076577239406,-122.07229965220556,,,0,,0,
1389,,Harbour Pointe Blvd & Chennault Beach Rd,,47.89762353928978,-122.30479406792578,,,0,,0,
1390,,Harbour Pointe Blvd & Double Eagle Dr,,47.887498639040274,-122.3102418585262,,,0,,0,
1391,,Harbour Pointe Blvd & Harbour Heights Pkwy,,47.895402701405956,-122.3086164236439,,,0,,0,
1392,,Harbour Pointe Blvd & Saint Andrews Dr,,47.89350858571278,-122.3117587825231,,,0,,0,
1393,,Harbour Pointe Blvd & 47th Pl W,,47.90498335238795,-122.295775142962,,,0,,0,
1394,,Hubbard Rd & Damson Rd,,47.80910731651487,-122.243314743604,,,0,,0,
1397,,I-5 & Marine Dr NE Flyer Stop,,48.05161125623378,-122.18562842094889,,,0,,0,
1398,,I-5 & 116th St NE Flyer Stop,,48.10059914209843,-122.1863078815832,,,0,,0,
1399,,Bothell P&R - Bay 2,,47.75927447749025,-122.19921507315554,,,0,,0,
14,,Totem Beach Rd & 64th St NW,,48.0554665057524,-122.27110200080304,,,0,,0,
140,,Puget Park Dr & 136th St SE,,47.87405919382137,-122.15408126741862,,,0,,0,
1401,,Lakeview Dr & Ballinger Park,,47.78778591858171,-122.3267892211831,,,0,,0,
1403,,Marine Dr & Warm Beach Conf Ctr,,48.18417655835083,-122.34738733354746,,,0,,0,
1405,,Marine Dr & Boe Rd,,48.212675697265645,-122.33626399683872,,,0,,0,
1406,,Marine Dr & 233rd St NW,,48.209792639415916,-122.33679095760937,,,0,,0,
1407,,Marine Dr & Thomle Rd,,48.224721550051434,-122.33723569915568,,,0,,0,
1408,,Marine Dr & 201st St NW,,48.17888931262854,-122.35203654651609,,,0,,0,
1409,,Marine Dr & 81st Ave NW,,48.188965313461914,-122.34038120455057,,,0,,0,
141,,Puget Park Dr & 138th Pl SE,,47.871357623819094,-122.15652668169753,,,0,,0,
1410,,Marine Dr & 226th St NW,,48.203017810106964,-122.33824175875237,,,0,,0,
1419,,Mountain Loop Hwy & Alvord St,,48.25129032457044,-121.60096810600929,,,0,,0,
142,,164th St SW & Larch Wy,,47.8496927535352,-122.24734432890264,,,0,,0,
1420,,Mountain Loop Hwy & Seeman St,,48.25477194392287,-121.60178776390393,,,0,,0,
1427,,Olympic View Dr & 172nd St SW,,47.8428149713922,-122.32213995989349,,,0,,0,
143,,164th St SE & 1st Ave SE,,47.849248237061374,-122.23109549894738,,,0,,0,
1430,,Olympic View Dr & 170th Pl SW,,47.84446993218144,-122.31970291324589,,,0,,0,
1435,,Railroad Ave & W Dayton St,,47.81044682766563,-122.38552410207052,,,0,,0,
1436,,Railroad Ave & Main St,,47.81194269634906,-122.38359870548118,,,0,,0,
144,,Puget Park Dr & 146th St SE,,47.86513732139819,-122.16306230449598,,,0,,0,
1443,,Shoultes Rd & 107th Pl NE,,48.09174978453674,-122.1639145850366,,,0,,0,
1444,,Shoultes Rd & 100th St NE,,48.08616686324726,-122.17128765148333,,,0,,0,
1445,,Shoultes Rd & 103rd Pl NE,,48.08883732038862,-122.1670477715516,,,0,,0,
1447,,Smokey Point Blvd & 156th St NE (farside),,48.13695834908501,-122.18323238002792,,,0,,0,
1448,,Smokey Point Blvd & 172nd St NE,,48.15203993860986,-122.18307052633327,,,0,,0,
1449,,Smokey Point Blvd & 173rd Pl NE,,48.15435134638987,-122.18306146065625,,,0,,0,
145,,Puget Park Dr & 148th St SE,,47.863777754714555,-122.16090457628373,,,0,,0,
1450,,Smokey Point Blvd & 156th St NE (nearside),,48.13876312562268,-122.1831731792011,,,0,,0,
1451,,Smokey Point Blvd & 183rd Pl NE,,48.16287880134221,-122.18301045922652,,,0,,0,
1453,,Smokey Point Blvd & 177th Pl NE,,48.157145297931145,-122.18305275107919,,,0,,0,
1455,,Hwy 525 & 3rd St,,47.94646559956034,-122.30415184837803,,,0,,0,
1456,,Hwy 525 & 81st Pl SW,,47.92397303935018,-122.30034660082953,,,0,,0,
1457,,Hwy 525 & 84th St SW,,47.92164055789712,-122.30027636450036,,,0,,0,
1458,,Hwy 525 & 88th St SW,,47.91827743232825,-122.30018098557787,,,0,,0,
1459,,Hwy 525 & 92nd St SW,,47.914758791164274,-122.29702630264133,,,0,,0,
146,,Puget Park Dr & Silver Firs Dr,,47.862580056224424,-122.15518192934329,,,0,,0,
1460,,Hwy 525 & Beverly Park Rd,,47.88203263476977,-122.27965807069755,,,0,,0,
1461,,Hwy 525 & Chennault Beach Rd,,47.89892323366217,-122.29129814042548,,,0,,0,
1462,,Hwy 525 & Harbour Pointe Blvd SW,,47.88948614523952,-122.28477871607676,,,0,,0,
1464,,Hwy 525 & Russell Rd,,47.895979958075635,-122.28923779334109,,,0,,0,
1465,,Hwy 525 & Front St,,47.94845409422472,-122.30431862010667,,,0,,0,
1466,,Hwy 525 & Harbour Pointe Blvd,,47.905640973532854,-122.29323279477077,,,0,,0,
1467,,Hwy 525 & Lincoln Wy,,47.87364537824986,-122.27659543432777,,,0,,0,
1468,,Hwy 525 & 76th St SW,,47.92920550566346,-122.30177608703247,,,0,,0,
1469,,Hwy 525 & 80th St SW,,47.92561765081068,-122.30038917171811,,,0,,0,
147,,Puget Park Dr & 62nd Dr SE,,47.86305732066112,-122.14803125624877,,,0,,0,
1470,,Hwy 525 & Clover Ln,,47.933313037743375,-122.30646246095623,,,0,,0,
1472,,Hwy 525 & Goat Trail Rd,,47.939969379888076,-122.30590535453543,,,0,,0,
1473,,Hwy 527 & 16th Ave SE,,47.8767950205839,-122.21198304694586,,,0,,0,
1474,,Hwy 527 & 164th St SE,,47.8486433266369,-122.21726230849187,,,0,,0,
1475,,Hwy 527 & NE 190th St,,47.76502285410166,-122.20914703194164,,,0,,0,
1476,,Hwy 527 & 192nd St SE,,47.823529808206565,-122.20753280398428,,,0,,0,
1477,,Hwy 527 & 196th St SE,,47.81985806284604,-122.20756164741535,,,0,,0,
1478,,Hwy 527 & 19th Dr SE,,47.81354020102063,-122.20760581022478,,,0,,0,
1479,,Hwy 527 & 208th St SE,,47.80896288647779,-122.20769610907222,,,0,,0,
148,,Snohomish Cascade Dr & 146th Pl SE,,47.864569299418136,-122.14529895152884,,,0,,0,
1481,,Hwy 527 & 228th St SE,,47.7905063240685,-122.21752538668498,,,0,,0,
1482,,Hwy 527 & 234th St SE,,47.7832186108575,-122.22043900178163,,,0,,0,
1483,,Hwy 527 & 180th St SE,,47.83483151589509,-122.21098043180659,,,0,,0,
1485,,Hwy 527 & 240th St SE (nearside),,47.78069158756795,-122.21990359353255,,,0,,0,
1486,,Hwy 527 & Seattle Hill Rd,,47.84403113646969,-122.21592940676719,,,0,,0,
1487,,Hwy 527 & NE 186th St,,47.76259558378098,-122.20761055728696,,,0,,0,
149,,Snohomish Cascade Dr & 142nd St SE,,47.868628028401346,-122.1442730573892,,,0,,0,
1490,,Arlington P&R - Bay 1,,48.19626392718046,-122.12894755280094,,,0,,0,
1492,,Hwy 9 & Hwy 204,,48.00235745753361,-122.1063398418149,,,0,,0,
1493,,Hwy 99 & 40th Ave W,,47.860516038712824,-122.28555163726045,,,0,,0,
1495,,Hwy 99 & 60th Ave W,,47.82483433188894,-122.312124344063,,,0,,0,
1497,,Hwy 99 & 148th St SW,,47.86337675205102,-122.28288967092854,,,0,,0,
1498,,Hwy 99 & 156th St SW,,47.856539814000314,-122.28924937482904,,,0,,0,
1499,,Hwy 99 & 168th St SW,,47.845682906522754,-122.29517214267288,,,0,,0,
15,,64th St NW & Totem Beach Rd,,48.05362512782048,-122.26728416531768,,,0,,0,
150,,Snohomish Cascade Dr & 141st St SE,,47.869775654641415,-122.14413911669384,,,0,,0,
1500,,Hwy 99 & 174th Pl SW,,47.84054537336475,-122.29852977804465,,,0,,0,
1501,,Hwy 99 & 176th St SW,,47.83821327887315,-122.30056529405685,,,0,,0,
1502,,Hwy 99 & 188th St SW,,47.82771802789601,-122.30964547399088,,,0,,0,
1503,,Hwy 99 & 196th St SW,,47.820527845972926,-122.31584471570972,,,0,,0,
1504,,Hwy 99 & 200th St SW,,47.8172889400256,-122.31863840292894,,,0,,0,
1505,,Hwy 99 & 202nd St SW,,47.81528952868343,-122.32036413264966,,,0,,0,
1506,,Hwy 99 & 208th St SW,,47.80972799218963,-122.32463318647471,,,0,,0,
1507,,Hwy 99 & 212th St SW,,47.805999463297915,-122.32731802408337,,,0,,0,
1508,,Hwy 99 & 216th St SW,,47.802544835888604,-122.3298109622236,,,0,,0,
1509,,Hwy 99 & 220th St SW,,47.79895166422568,-122.3324094425671,,,0,,0,
151,,Snohomish Cascade Dr & 138th Pl SE,,47.871292843295784,-122.14501291935802,,,0,,0,
1510,,Hwy 99 & 224th St SW,,47.79559113208279,-122.33482711411014,,,0,,0,
1511,,Hwy 99 & 230th St SW,,47.79020413342233,-122.33870746586403,,,0,,0,
1512,,Hwy 99 & 44th Ave W,,47.85175654926931,-122.29279344628581,,,0,,0,
1513,,Hwy 99 & Airport Rd,,47.88837362735663,-122.25965232398812,,,0,,0,
1514,,Hwy 99 & Russell Wy,,47.87958015170818,-122.26777773091632,,,0,,0,
1516,,Hwy 99 & 234th St SW,,47.78714238736862,-122.34091330564385,,,0,,0,
1517,,Hwy 99 & 238th St SW,,47.78372352082396,-122.34337293482584,,,0,,0,
1518,,Hwy 99 & Gibson Rd,,47.88336714620333,-122.2642426852066,,,0,,0,
1519,,Hwy 99 & Lincoln Wy,,47.87394531940725,-122.27302966285774,,,0,,0,
152,,Puget Park Dr & 54th Ave SE,,47.868585258608014,-122.16010692025063,,,0,,0,
1521,,Hwy 99 & 180th St SW,,47.834974908633896,-122.3033486771948,,,0,,0,
1522,,State Ave & 100th St NE,,48.083493802972704,-122.17315374216004,,,0,,0,
1523,,State Ave & 2nd St,,48.050188892998754,-122.1771713978296,,,0,,0,
1524,,State Ave & 6th St,,48.05349602846153,-122.17712667910742,,,0,,0,
1525,,State Ave & 8th St,,48.055204366954484,-122.17710983390592,,,0,,0,
1526,,State Ave & 80th St NE,,48.068239154254414,-122.17708538040274,,,0,,0,
1527,,State Ave & 88th St NE,,48.07525435661493,-122.17623719242769,,,0,,0,
1528,,State Ave & Grove St,,48.06089671079126,-122.17707816059463,,,0,,0,
1529,,State Ave & 84th St NE,,48.07199948221364,-122.17673744456789,,,0,,0,
153,,Snohomish Cascade Dr & 142nd St SE,,47.86809534810006,-122.14481782150496,,,0,,0,
1530,,State Ave & 10th St,,48.057874878589715,-122.17710987154987,,,0,,0,
1531,,State Ave & 76th St NE,,48.064724431538366,-122.17706335023927,,,0,,0,
1533,,Stevens Wy & Pend Oreille Rd,,47.65693504860678,-122.3048971308741,,,0,,0,
1534,,Stevens Wy & Benton Ln,,47.654326027806945,-122.3052169314958,,,0,,0,
1535,,S Stillaguamish Ave & Highland Dr,,48.188690223415655,-122.11779703551076,,,0,,0,
1537,,Village Green Dr & Fairway Dr SE,,47.8648809663807,-122.19624744512184,,,0,,0,
1538,,Village Green Dr & Willow Ln SE,,47.865369448706296,-122.20240896576732,,,0,,0,
154,,Snohomish Cascade Dr & 146th Pl SE,,47.86395273374552,-122.14550742728144,,,0,,0,
1541,,Village Green Dr & Cottonwood Ln,,47.86391836367566,-122.19511383294322,,,0,,0,
1542,,Village Green Dr & 20th Dr SE,,47.867235744366106,-122.20797153557236,,,0,,0,
1549,,E 1st St & N Lenore Ave,,48.19248519039947,-122.12168063045074,,,0,,0,
155,,Puget Park Dr & 62nd Dr SE,,47.86320735395005,-122.14881328419551,,,0,,0,
1550,,E 1st St & N Stillaguamish Ave,,48.192447590776816,-122.11768581394529,,,0,,0,
1551,,107th St SW & 47th Ave W,,47.90130569082499,-122.29497393131902,,,0,,0,
1552,,128th St SE & 3rd Ave SE,,47.882050664618276,-122.22876123262196,,,0,,0,
1553,,128th St SW & 4th Ave W,,47.88202250283768,-122.23934585725544,,,0,,0,
1554,,128th St SW & 8th Ave W,,47.88197379272777,-122.24574794418191,,,0,,0,
1557,,132nd St SE & 25th Ave SE,,47.878103885703,-122.19910211012098,,,0,,0,
1558,,132nd St SE & 29th Ave SE,,47.878055354049536,-122.19374134150144,,,0,,0,
1559,,132nd St SE & 35th Ave SE,,47.877958714591095,-122.1857057103938,,,0,,0,
156,,Puget Park Dr & Silver Firs Dr,,47.862605759372954,-122.15627859986107,,,0,,0,
1560,,132nd St SE & 44th Ave SE,,47.87789528594533,-122.1736238913686,,,0,,0,
1562,,132nd St SE & Seattle Hill Rd,,47.87785767622915,-122.16651911826547,,,0,,0,
1564,,132nd St SE & 21st Dr SE,,47.878162580742426,-122.20267802045709,,,0,,0,
1565,,134th Pl SE & 58th Dr SE,,47.87592330176605,-122.15268611607864,,,0,,0,
1566,,148th St SW & 45th Pl W,,47.864289229069655,-122.2952125478543,,,0,,0,
1567,,148th St SW & 48th Pl W,,47.86438934784376,-122.29959972919939,,,0,,0,
1568,,148th St SW & Hwy 99,,47.86422817574074,-122.28429073874415,,,0,,0,
1569,,152nd St NE & 47th Ave NE,,48.133999395814236,-122.16802053564945,,,0,,0,
157,,Puget Park Dr & 54th Ave SE,,47.863701056066375,-122.15995325291934,,,0,,0,
1570,,152nd St NE & 51st Ave NE,,48.13391509697056,-122.16275515849327,,,0,,0,
1571,,152nd St NE & 43rd Ave NE,,48.13407174608535,-122.17358462541351,,,0,,0,
1572,,152nd St NE & 40th Ave NE,,48.134187162671196,-122.17942838454373,,,0,,0,
1573,,Swamp Creek P&R - Bay 1,,47.850000805672224,-122.27644983495861,,,0,,0,
1574,,164th St SW & 2nd Pl W,,47.84947811532149,-122.23650308862554,,,0,,0,
1575,,164th St SW & 28th Ave W,,47.85002029995109,-122.27163954452756,,,0,,0,
1576,,164th St SE & 3rd Ave SE,,47.84933059575932,-122.22816892683763,,,0,,0,
1577,,164th St SW & Ash Wy,,47.849890387904416,-122.26122405115328,,,0,,0,
1578,,164th St SE & Meridian Ave S,,47.84942580866067,-122.233165523914,,,0,,0,
1579,,164th St SW & 7th Pl W,,47.84961826125397,-122.24271891202186,,,0,,0,
158,,Puget Park Dr & 53rd Ave SE,,47.86399514381721,-122.16130945241703,,,0,,0,
1580,,164th St SE & Mill Creek Blvd,,47.84950738186019,-122.22107776039392,,,0,,0,
1581,,164th St SW & Meadow Rd,,47.849799378408804,-122.25267943098815,,,0,,0,
1582,,164th St SW & Spruce Wy,,47.85009769270897,-122.28503955305085,,,0,,0,
1583,,W Main St & Tester Rd,,47.84879392527235,-122.0043072268776,,,0,,0,
1584,,168th St SE & 28th Dr SE,,47.84563674633359,-122.19477984879153,,,0,,0,
1586,,168th St SW & 52nd Ave W,,47.84665203435903,-122.30405481779455,,,0,,0,
1587,,168th St SW & 60th Ave W,,47.846659970097086,-122.31469449406652,,,0,,0,
1589,,168th St SE & 30th Dr SE,,47.84554413800319,-122.19127047955698,,,0,,0,
159,,Puget Park Dr & 138th Pl SE,,47.87238509516382,-122.1554037428231,,,0,,0,
1590,,168th St SE & 25th Ave SE,,47.84570349452743,-122.19883842224819,,,0,,0,
1591,,172nd St NE & 11th Ave NE,,48.15189384997156,-122.21590681089117,,,0,,0,
1592,,172nd St NE & Spring Lane Ave,,48.152301979792945,-122.19248082083635,,,0,,0,
1593,,172nd St NE & 3rd Ave NE,,48.152074729040805,-122.22749492500166,,,0,,0,
1594,,172nd St NE & Smokey Point Blvd,,48.15251118348815,-122.18356636840913,,,0,,0,
1595,,172nd St NW & Lakewood Rd,,48.15209718048585,-122.23781683220543,,,0,,0,
16,,Marine Dr NE & 33rd Ave NE,,48.05306780131521,-122.18766635157705,,,0,,0,
1600,,180th St SE & Hwy 527,,47.83476728570859,-122.20948420282443,,,0,,0,
1601,,184th St SW & 33rd Ave W,,47.832011921181476,-122.27832690835494,,,0,,0,
161,,E 1st St & S French Ave,,48.1923520845982,-122.12230467118233,,,0,,0,
1611,,188th St NE & 35th Ave NE,,48.16706171323881,-122.18403000624487,,,0,,0,
1613,,194th St SW & 44th Ave W,,47.82282088506617,-122.29278466107566,,,0,,0,
1614,,194th St SW & 46th Ave W,,47.822875254787824,-122.2958234657597,,,0,,0,
1616,,196th St SW & 58th Pl SW,,47.82123135389666,-122.31255080042061,,,0,,0,
1617,,196th St SW & 64th Ave W,,47.82130798788009,-122.32016634007752,,,0,,0,
1618,,196th St SW & 68th Ave W,,47.82138924051789,-122.32592145289735,,,0,,0,
1619,,196th St SW & 76th Ave W,,47.82151149227601,-122.3364656798367,,,0,,0,
162,,E 1st St & N Washington Ave,,48.19231223279637,-122.11777674595994,,,0,,0,
1620,,196th St SW & 80th Ave W,,47.82152151917215,-122.34173837085729,,,0,,0,
1621,,196th St SW & 84th Ave W,,47.82153295601559,-122.34730017879644,,,0,,0,
1622,,196th St SW & 86th Ave W,,47.82151346677741,-122.3498034962412,,,0,,0,
1623,,196th St SW & Hwy 99,,47.82123310425323,-122.31622316610448,,,0,,0,
1624,,196th St SW & 50th Ave W,,47.82115405582474,-122.30132404838032,,,0,,0,
1625,,196th St SW & Heinz Pl,,47.821441541577556,-122.33093477167017,,,0,,0,
1626,,Second St & Ave C,,47.91301966627267,-122.09735918881424,,,0,,0,
1627,,Second St & Maple Ave,,47.91280000118274,-122.08916867285798,,,0,,0,
1628,,Second St & Pine Ave,,47.91272892300096,-122.08639778852825,,,0,,0,
1629,,Second St & Ave A,,47.91293907902483,-122.09422507501951,,,0,,0,
1630,,20th St NE & 112th Dr NE,,48.01550551302295,-122.07976726349312,,,0,,0,
1631,,20th St NE & 116th Ave NE,,48.015703741475164,-122.07488878397518,,,0,,0,
1632,,20th St NE & 118th Ave NE,,48.01568925137257,-122.07166425823596,,,0,,0,
1633,,20th St NE & 124th Ave NE,,48.01560103356078,-122.06381217170258,,,0,,0,
1635,,Alderwood Mall Blvd & 40th Ave W,,47.81738295059522,-122.28853612527662,,,0,,0,
1637,,200th St SW & 48th Ave W,,47.81745315393532,-122.2987033474159,,,0,,0,
1638,,200th St SW & 50th Ave W,,47.81748706003751,-122.30161506737684,,,0,,0,
1639,,200th St SW & 52nd Pl W,,47.81752340724789,-122.30433145445,,,0,,0,
1640,,200th St SW & 56th Ave W,,47.81753723061888,-122.30942467472647,,,0,,0,
1641,,200th St SW & 64th Ave W,,47.81768878490023,-122.31994037872094,,,0,,0,
1642,,200th St SW & Scriber Lake Rd,,47.817599735771076,-122.31497524956126,,,0,,0,
1643,,Alderwood Mall Blvd & 44th Ave W,,47.81739034425092,-122.2920414443227,,,0,,0,
1645,,200th St SW & 66th Pl W,,47.81777358109074,-122.3241644790682,,,0,,0,
1646,,204th St SW & 28th Ave W,,47.813641868204925,-122.27129762969501,,,0,,0,
1647,,204th St NE & 77th Ave NE,,48.180897514574035,-122.12667898148919,,,0,,0,
1648,,204th St SW & Poplar Wy,,47.81362646210573,-122.27903553953897,,,0,,0,
1649,,204th St SW & 24th Ave W,,47.81355479343749,-122.2651322436005,,,0,,0,
165,,128th St SE & 3rd Ave SE,,47.881834830096494,-122.2275733787208,,,0,,0,
1650,,204th St SW & 38th Ave W,,47.81367952364248,-122.28371829808114,,,0,,0,
1651,,204th St NE & 71st Ave NE,,48.1809465259161,-122.13667089478565,,,0,,0,
1652,,207th St NE & S Stillaguamish Ave,,48.18427039447482,-122.11879776728112,,,0,,0,
1655,,208th St SW & 68th Ave W,,47.81053866168351,-122.32533627945229,,,0,,0,
1656,,208th St SW & 72nd Ave W,,47.81056777713172,-122.3293994556917,,,0,,0,
166,,128th St SW & 4th Ave W,,47.88177040595792,-122.23799393320355,,,0,,0,
1662,,212th St SW & 80th Ave W,,47.806988712860175,-122.34155155192195,,,0,,0,
1663,,212th St SW & 74th Ave W,,47.80694402211592,-122.3324492742984,,,0,,0,
1664,,212th St SW & 84th Ave W,,47.80699944531472,-122.34613085714922,,,0,,0,
1666,,220th St SW & 53rd Ave W,,47.79932766326618,-122.30476339596797,,,0,,0,
1667,,220th St SW & 70th Ave W,,47.79964009144135,-122.32842076835828,,,0,,0,
1668,,220th St SW & 76th Ave W,,47.799711160526456,-122.33616732736792,,,0,,0,
1669,,220th St SW & 80th Ave W,,47.799713883386026,-122.3405381979084,,,0,,0,
167,,128th St SW & 8th Ave W,,47.8818095515497,-122.24372584355737,,,0,,0,
1670,,220th St SW & 82nd Pl W,,47.79968866230122,-122.3445216429498,,,0,,0,
1671,,220th St SW & 84th Ave W,,47.79967881323831,-122.34671489352196,,,0,,0,
1672,,220th St SW & 88th Ave W,,47.79964878577489,-122.35228129112404,,,0,,0,
1673,,220th St SW & 93rd Pl W,,47.79965648236878,-122.35664418208533,,,0,,0,
1674,,220th St SW & 95th Ave W,,47.79965409582246,-122.36051842327805,,,0,,0,
1675,,220th St SW & Hwy 99,,47.7997039723197,-122.33379452231387,,,0,,0,
1676,,220th St SW & 58th Ave W,,47.799517176976146,-122.31089757972839,,,0,,0,
1677,,220th St SW & 66th Ave W,,47.79954106528207,-122.32172747194599,,,0,,0,
1678,,220th St SW & 77th Pl W,,47.7997094197122,-122.33817360784793,,,0,,0,
168,,128th St SW & E Gibson Rd,,47.881760261343985,-122.24971213890565,,,0,,0,
1680,,228th St SE & 15th Ave SE,,47.79137453513496,-122.21352852713082,,,0,,0,
1681,,228th St SW & 32nd Ave W,,47.79189438725757,-122.27703804157142,,,0,,0,
1682,,228th St SW & 39th Ave W,,47.79187387096417,-122.28708374739784,,,0,,0,
1683,,228th St SW & 42nd Pl W,,47.79190237442557,-122.29022579508317,,,0,,0,
1684,,228th St SW & 73rd Pl W,,47.792381406938176,-122.33223576689156,,,0,,0,
1685,,228th St SW & 35th Ave W,,47.79183317858629,-122.2801409533576,,,0,,0,
1686,,228th St SW & 76th Ave W,,47.792439995554574,-122.33528925764833,,,0,,0,
1687,,228th St SW & 29th Ave W,,47.79204129761857,-122.27235060742116,,,0,,0,
1689,,230th St SW & 60th Ave W,,47.79034758559478,-122.31368388273458,,,0,,0,
169,,128th St SE & 6th Ave SE,,47.88170717387356,-122.22251573615735,,,0,,0,
1694,,Mountlake Terrace TC - Bay 3,,47.7848470952702,-122.31517052124775,,,0,,0,
1695,,236th St SW & 48th Ave W,,47.784717035738005,-122.29805092335917,,,0,,0,
1696,,236th St SW & 50th Ave W,,47.78474730631382,-122.30081830684358,,,0,,0,
1697,,236th St SW & 52nd Ave W,,47.78479056846514,-122.30342332650415,,,0,,0,
1698,,236th St SW & 54th Ave W,,47.784802571357325,-122.3061088332077,,,0,,0,
1699,,236th St SW & 56th Ave W,,47.78483160285017,-122.30916912396316,,,0,,0,
17,,Marine Dr NE & Meridian Ave N,,48.03854419029268,-122.23269850505027,,,0,,0,
1701,,236th St SW & 44th Pl W,,47.78479757752554,-122.29175934672541,,,0,,0,
1703,,238th St SW & 86th Ave W,,47.783293998355056,-122.34723350439259,,,0,,0,
1704,,238th St SW & 84th Ave W (nearside),,47.78330157691909,-122.34583421009239,,,0,,0,
1705,,238th St SW & Edmonds Wy,,47.783278474563545,-122.35067488362526,,,0,,0,
1707,,244th St SW & 3rd Ave NW,,47.777829723629765,-122.35872864806431,,,0,,0,
1708,,244th St SW & 87th Pl W,,47.77782402086575,-122.35113363962107,,,0,,0,
1709,,244th St SW & 91st Ave W,,47.77781862941662,-122.35421697693684,,,0,,0,
171,,132nd St SE & 25th Ave SE,,47.877957472414735,-122.19827496581243,,,0,,0,
1710,,244th St SW & Whitman Ave N,,47.777854234139475,-122.3476198280855,,,0,,0,
1711,,Stanwood II Park & Ride &,,48.239274444244685,-122.34962592881288,,,0,,0,
1717,,276th St NW & 78th Ave NW,,48.246759174171814,-122.33878778102753,,,0,,0,
172,,132nd St SE & 29th Dr SE,,47.87791489710683,-122.1931018501235,,,0,,0,
1720,,4th St & Quinn Ave,,48.05187246093412,-122.17153103246785,,,0,,0,
1721,,4th St & Columbia Ave,,48.051914741254436,-122.17495492997585,,,0,,0,
1724,,NE 45th St & Brooklyn Ave NE,,47.66134214872892,-122.31393902274667,,,0,,0,
1725,,NE 45th St & 9th Ave NE,,47.661370549930446,-122.31828679184183,,,0,,0,
173,,132nd St SE & 35th Ave SE,,47.87782177228673,-122.1849970492947,,,0,,0,
1730,,64th St NE & 60th Dr NE,,48.05388719253968,-122.14976165385173,,,0,,0,
1731,,64th St NE & 55th Dr NE,,48.05399853919341,-122.15748140975823,,,0,,0,
1732,,64th St NE & 67th Ave NE,,48.05371607597065,-122.14122662146163,,,0,,0,
174,,132nd St SE & 44th Ave SE,,47.87775283445451,-122.17291104686898,,,0,,0,
1740,,92nd St SE & 113th Dr SE,,47.91333940088499,-122.0786963685422,,,0,,0,
1741,,94th St SW & Airport Rd,,47.91341393115764,-122.2724803786433,,,0,,0,
1742,,Alderwood Mall Blvd & 28th Ave W,,47.82622947365132,-122.27112983805615,,,0,,0,
1743,,Alderwood Mall Blvd & 33rd Ave W,,47.822565172787414,-122.2779535690923,,,0,,0,
1744,,Beardslee Blvd & 110th Ave NE,,47.76348213827633,-122.19426285926085,,,0,,0,
1748,,Boeing & Gate E-67,,47.91431341233466,-122.27682462775675,,,0,,0,
175,,132nd St SE & Seattle Hill Rd,,47.877707443589294,-122.16552895385642,,,0,,0,
1755,,E Burke Ave & N Manhattan St,,48.200322114535794,-122.12157751975576,,,0,,0,
176,,132nd St SE & Hwy 527,,47.878096012180194,-122.2068578944032,,,0,,0,
1768,,Caspers St & 7th Ave N,,47.817840769661245,-122.37244525468444,,,0,,0,
1769,,Caspers St & 8th Ave N,,47.81783024541348,-122.3687443172416,,,0,,0,
1770,,Chennault Beach Rd & 47th Ave W,,47.895794424738156,-122.29754587746454,,,0,,0,
1773,,Dayton St & Durbin Dr,,47.80975513195014,-122.37281166516907,,,0,,0,
1774,,Dayton St & 5th Ave S,,47.80976831352079,-122.37792863297922,,,0,,0,
1775,,Dayton St & 6th Ave S,,47.80976101528583,-122.37522155484899,,,0,,0,
1776,,Dayton St & 8th Ave S,,47.80977221247026,-122.36991400316319,,,0,,0,
1777,,Dayton St & 9th Ave S,,47.80977849236991,-122.36740678587995,,,0,,0,
1778,,Dayton St & Sunset Ave,,47.80976165702349,-122.38287405720055,,,0,,0,
1785,,Front St & Hwy 525,,47.948819684711516,-122.30424739627786,,,0,,0,
179,,148th St SW & 48th Ave W,,47.86422136347089,-122.29794473208332,,,0,,0,
1798,,Hewitt Ave & Virginia Ave,,47.979218201681846,-122.19749132664728,,,0,,0,
18,,Marine Dr NE & 19th Ave NE,,48.05311813326021,-122.20535878450413,,,0,,0,
180,,148th St SW & 52nd Ave W,,47.864296243401995,-122.30300759629449,,,0,,0,
1801,,Harbour Pointe Blvd  SW & Harbour Reach Dr,,47.88713972311253,-122.2944189703321,,,0,,0,
1802,,Harbour Pointe Blvd  SW & Hwy 525,,47.88969497222183,-122.28604018363947,,,0,,0,
1803,,Harbour Pointe Blvd SW & Possession Wy,,47.88651474765985,-122.29847774736523,,,0,,0,
1805,,Lake View Dr & Cedar Rd,,48.015432985806214,-122.08416247563179,,,0,,0,
1806,,Lakewood Rd & McRae Rd NW,,48.15671665147134,-122.26167299825761,,,0,,0,
1807,,Lakewood Rd & 184th St NW,,48.16370310634177,-122.33651864593358,,,0,,0,
1808,,Lakewood Rd & 31st Dr NW,,48.15567066517371,-122.2749655997791,,,0,,0,
1809,,Lakewood Rd & 53rd Dr NW,,48.15596261038725,-122.3070918993046,,,0,,0,
181,,148th St SW & Hwy 99,,47.864091280858844,-122.28405872276207,,,0,,0,
1810,,Lakewood Rd & 60th Ave NW,,48.15893956587969,-122.31376260675702,,,0,,0,
1811,,Lakewood Rd & 84th Dr NW,,48.16731871622676,-122.34620699347703,,,0,,0,
1812,,Lakewood Rd & 176th Pl NW,,48.15679022202644,-122.24527984793106,,,0,,0,
1813,,Lakewood Rd & 65th Dr NW,,48.16101560180462,-122.32687500087067,,,0,,0,
1814,,Lakewood Rd & 52nd Ave NW,,48.155833748915796,-122.29721674076713,,,0,,0,
1815,,Logan Rd & 14th Pl W,,47.80905515387294,-122.25239819163862,,,0,,0,
1816,,Lundeen Pkwy & Callow Rd,,48.017924965412654,-122.0909575671734,,,0,,0,
1817,,Lundeen Pkwy & 101st Ave NE,,48.01790772978001,-122.09502331663282,,,0,,0,
1819,,Main St & 12th Ave N,,47.8105667981847,-122.35973276985166,,,0,,0,
182,,152nd St NE & 43rd Ave NE,,48.1339110235354,-122.17231891348412,,,0,,0,
1821,,Main St & 84th Ave W,,47.807473521703336,-122.34739426130137,,,0,,0,
1822,,Main St & 86th Pl W,,47.81058384083992,-122.35083920885418,,,0,,0,
1823,,Main St & 9th Ave N,,47.81059615983313,-122.36736585755469,,,0,,0,
1824,,W Main St & N Blakely St,,47.85528670122086,-121.97252855868997,,,0,,0,
1826,,W Main St & N Kelsey St,,47.8537153814462,-121.97750039064208,,,0,,0,
1827,,Main St & Maplewood Dr,,47.810578345122316,-122.3549624709389,,,0,,0,
1828,,Main St & Olympic Ave,,47.81057635182128,-122.36209394967753,,,0,,0,
183,,152nd St NE & Smokey Point Blvd,,48.1341059132594,-122.18285043336932,,,0,,0,
1830,,Main St & Hwy 2,,47.86259671562785,-121.80750966405611,,,0,,0,
1831,,E Main St & Woods St,,47.85676197886953,-121.96781912243586,,,0,,0,
1832,,Mill Creek Rd & Mill Pointe Dr SE,,47.85136341455795,-122.20588010932798,,,0,,0,
1833,,Market Pl & 91st Ave NE,,47.997951830158684,-122.10778356400988,,,0,,0,
1834,,Monte Villa Pkwy & 39th Ave SE,,47.778231225976796,-122.1822145759714,,,0,,0,
1836,,Monte Villa Pkwy & 35th Ave SE,,47.778816020835926,-122.18516270238986,,,0,,0,
1839,,E Pioneer St & S Alder Ave,,48.079897871558245,-121.96431222875307,,,0,,0,
184,,152nd St NE & 51st Ave NE,,48.13377672978031,-122.16262871164096,,,0,,0,
1840,,Puget Dr & Olympic View Dr,,47.82156916161507,-122.36495063835238,,,0,,0,
1842,,Seattle Hill Rd & 35th Ave SE,,47.86040343975671,-122.18655508420112,,,0,,0,
1843,,Seattle Hill Rd & 27th Ave SE,,47.85616146470902,-122.19397286153465,,,0,,0,
1844,,Seattle Hill Rd & 25th Ave SE,,47.852822751013484,-122.19964532083328,,,0,,0,
1845,,Seeman St & Givens Ave,,48.25535164524937,-121.60324144104483,,,0,,0,
1848,,Edmonds Wy & Paradise Ln,,47.79518699845495,-122.37361211347066,,,0,,0,
1849,,Edmonds Wy & 100th Ave W,,47.790704901747425,-122.36742028511095,,,0,,0,
185,,152nd St NE & 40th Ave NE,,48.13397665693214,-122.17585946241483,,,0,,0,
1850,,Edmonds Wy & 232nd St SW,,47.78981508439537,-122.35605397490994,,,0,,0,
1851,,Edmonds Wy & 238th St SW,,47.78438260532963,-122.3530099314338,,,0,,0,
1853,,Edmonds Wy & 95th Pl W,,47.79207095629787,-122.35939988406173,,,0,,0,
1859,,Hwy 520 & Evergreen Point Fwy Stn,,47.63720676585189,-122.23757118288475,,,0,,0,
186,,152nd St NE & 47th Ave NE,,48.13385198419279,-122.16678386009039,,,0,,0,
1860,,Hwy 520 & Montlake Fwy Station,,47.644360140827935,-122.30448446747779,,,0,,0,
1862,,Hwy 530 & Ramstad Rd (farside),,48.26852359016343,-121.96071989106638,,,0,,0,
1863,,Hwy 530 & Boulder Creek Dr,,48.27815296417614,-121.7795357826085,,,0,,0,
1864,,Hwy 530 & 379th Ave NE,,48.2688143174788,-121.71896422748709,,,0,,0,
1865,,Hwy 530 & Powerline Rd,,48.26318348048782,-121.6330886908506,,,0,,0,
1866,,Hwy 530 & 355th Ave NE,,48.27715482746222,-121.75073570517753,,,0,,0,
1867,,Hwy 530 & 119th Ave NE,,48.234608963163105,-122.0675562203564,,,0,,0,
1868,,Hwy 530 & 171st Ave NE(Cicero Pk),,48.27346404122235,-121.99928883929255,,,0,,0,
1869,,Hwy 530 & N Brooks Creek Rd,,48.27359658861906,-121.91511417100106,,,0,,0,
187,,164th St SW & 13th Ave W,,47.84963303767154,-122.25083773634186,,,0,,0,
1870,,Hwy 530 & 294th St NE,,48.26495990314289,-122.01994703315339,,,0,,0,
1871,,Hwy 530 & 411th Ave NE,,48.269261828811885,-121.67684537194474,,,0,,0,
1872,,Hwy 530 & Hillis Rd,,48.26828906674938,-122.0105051741278,,,0,,0,
1873,,Hwy 530 & Seeman St,,48.25551960484058,-121.6088557022174,,,0,,0,
1874,,Hwy 530 & Squire Creek Rd,,48.270614214692124,-121.67033429845907,,,0,,0,
1875,,Hwy 530 & 387th Ave NE,,48.26876959718342,-121.70722362058858,,,0,,0,
1877,,Hwy 530 & E Post Rd,,48.27717710997747,-121.81332251457356,,,0,,0,
1878,,Hwy 530 & 139th Ave NE,,48.24771484725491,-122.04161228709023,,,0,,0,
1879,,Hwy 530 & 310th St NE,,48.276906865906426,-121.7975793988763,,,0,,0,
188,,W Main St & 170th Dr SE,,47.84867590808738,-122.00271194675877,,,0,,0,
1880,,Hwy 530 & Lake Cavanaugh Rd,,48.27027367211339,-121.93452972422544,,,0,,0,
1881,,Hwy 530 & Ramstad Rd (nearside),,48.26910607241092,-121.95384201667252,,,0,,0,
1882,,Hwy 530 & Whitman Rd,,48.271500397702276,-121.8883770049593,,,0,,0,
1883,,Hwy 530 & 171st Ave NE (farside),,48.27055312884585,-122.00409322529941,,,0,,0,
1884,,Hwy 530 & 179th Ave NE,,48.27367307579274,-121.98421729200484,,,0,,0,
1885,,Hwy 530 & 115th Ave NE,,48.23169456933839,-122.07622687139639,,,0,,0,
1887,,Hwy 530 & French Creek Rd,,48.278587755264,-121.76452003640348,,,0,,0,
1888,,Hwy 530 & Tom Creek Rd,,48.27000634747116,-121.72931642645756,,,0,,0,
1889,,Hwy 530 & Oso Loop Rd,,48.27226411129384,-121.90012135281285,,,0,,0,
189,,164th St SW & Alderwood Mall Pkwy,,47.84987861261014,-122.27091459838589,,,0,,0,
1891,,Hwy 530 & 223rd Ave NE,,48.27136541435929,-121.92813446278682,,,0,,0,
1893,,Hwy 92 & 44th St NE (nearside),,48.039590951173345,-122.04581519030361,,,0,,0,
1894,,Hwy 92 & 127th Dr NE,,48.032082355287145,-122.05939387588374,,,0,,0,
1895,,Hwy 92 & 161st Ave NE,,48.06715960295536,-122.01578897356964,,,0,,0,
1896,,Hwy 92 & 44th St NE,,48.03596340767038,-122.04998147917081,,,0,,0,
1897,,Hwy 92 & 84th St NE,,48.07153094603985,-122.01008028556662,,,0,,0,
1898,,Hwy 92 & 64th St NE,,48.05783102564292,-122.02624927493805,,,0,,0,
1899,,Hwy 92 & 75th St NE,,48.06405891469514,-122.01922727942052,,,0,,0,
19,,Marine Dr NE & 21st Dr NE,,48.05429617845696,-122.20176265300198,,,0,,0,
190,,164th St SE & 3rd Ave SE,,47.84919504824888,-122.22714284933369,,,0,,0,
1900,,Hwy 92 & 147th Ave NE,,48.05252378708082,-122.0319701563509,,,0,,0,
1902,,Hwy 92 & Crooked Mile Rd,,48.0791651592741,-122.00135574227701,,,0,,0,
1904,,W Stanley St & Portage Ave,,48.083351377684345,-121.97466629625039,,,0,,0,
1905,,Grant Ln & Stevens Wy,,47.65509670511896,-122.31092035409095,,,0,,0,
1906,,Stevens Wy & Garfield Ln,,47.65217486325026,-122.30871900902008,,,0,,0,
1907,,Stewart St & 4th Ave,,47.61208815960192,-122.3391866287512,,,0,,0,
1908,,Stewart St & 7th Ave,,47.61447471333105,-122.33599941466828,,,0,,0,
1909,,Stewart St & 9th Ave,,47.61585417505584,-122.33431982733515,,,0,,0,
191,,164th St SW & 6th Ave W,,47.849452411854266,-122.2408243187026,,,0,,0,
1911,,Stewart St & Yale Ave,,47.61809366682607,-122.33125364769215,,,0,,0,
1912,,Hwy 2 & Maple St,,47.85943866962033,-121.82595791778294,,,0,,0,
1913,,Hwy 2 & 383rd Ave SE,,47.86497687278951,-121.71771645186182,,,0,,0,
1914,,Hwy 2 & 1st St,,47.857682518175714,-121.70291442756348,,,0,,0,
1915,,Hwy 2 & 179th Ave SE,,47.86589689495129,-121.99112989741191,,,0,,0,
1916,,Hwy 2 & 368th Dr SE,,47.867274610255166,-121.73836015974177,,,0,,0,
1917,,Hwy 2 & Calhoun Rd,,47.855905823291394,-121.92795549155119,,,0,,0,
1918,,Hwy 2 & Chain Lake Rd,,47.85942808352267,-121.97074154676186,,,0,,0,
192,,164th St SE & 9th Ave SE,,47.84939179748386,-122.21998298592648,,,0,,0,
1920,,Hwy 2 & N Kelsey St,,47.86113588819391,-121.97818990603824,,,0,,0,
1921,,Hwy 2 & Rice Rd,,47.86791303077081,-121.77840341214895,,,0,,0,
1922,,Hwy 2 & Roosevelt Rd (East),,47.87268054720807,-122.0082827574837,,,0,,0,
1923,,Hwy 2 & Woods Creek Rd SE,,47.85832551682712,-121.9658082725535,,,0,,0,
1925,,Hwy 2 & 364th Ave SE,,47.86726073561548,-121.74425157371891,,,0,,0,
1926,,Hwy 2 & Roosevelt Rd (W),,47.90053171829811,-122.03648160313514,,,0,,0,
1927,,Hwy 2 & Westwick Rd,,47.905376170819515,-122.043008428324,,,0,,0,
1928,,Monroe P&R - Bay 1,,47.86790798574263,-121.99531881757575,,,0,,0,
1929,,Sultan P&R - Bay 1,,47.86359446633232,-121.80204862994476,,,0,,0,
193,,164th St SW & Larch Wy,,47.849530645472754,-122.24648447665612,,,0,,0,
1930,,Walnut St & 10th Ave S,,47.807335140624936,-122.36456262516901,,,0,,0,
1932,,S Kentucky Ave & E Pioneer St,,48.07992897932053,-121.96671866122709,,,0,,0,
1933,,S Alder Ave & E Pioneer St,,48.08040863584908,-121.96395110960722,,,0,,0,
1934,,S Alder Ave & E Stanley St,,48.08324379229851,-121.96392326044538,,,0,,0,
194,,164th St SW & North Rd,,47.84931713049549,-122.23532150533048,,,0,,0,
195,,164th St SW & Spruce Wy,,47.84995417632687,-122.2842493390769,,,0,,0,
197,,Swamp Creek P&R - Bay 2,,47.849999144188175,-122.27636424461623,,,0,,0,
198,,168th St SE & 23rd Ave SE,,47.845582173144436,-122.2014175726913,,,0,,0,
199,,168th St SE & 25th Ave SE,,47.845560275997585,-122.19820331600913,,,0,,0,
2,,1st St & High St,,47.86868444347855,-121.82079334130661,,,0,,0,
200,,168th St SE & 28th Dr SE,,47.8454819109829,-122.1941974001932,,,0,,0,
202,,168th St SW & 52nd Ave W,,47.84651655508433,-122.30456827763611,,,0,,0,
203,,168th St SE & 30th Dr SE,,47.845403249199805,-122.19112830131445,,,0,,0,
2035,,Lynnwood Transit Center &,,47.81620698997868,-122.29581034802719,,,0,,0,
204,,168th St SW & 60th Ave W,,47.84653498033339,-122.31545262519319,,,0,,0,
205,,172nd St NE & 16th Dr NE,,48.15182480483629,-122.20840273061735,,,0,,0,
206,,172nd St NE & 11th Ave NE,,48.15175388240363,-122.21500573610994,,,0,,0,
207,,172nd St NE & 27th Ave NE,,48.15214105994743,-122.19333701568462,,,0,,0,
2085,,Hwy 527 & Mill Creek Blvd,,47.855175903396265,-122.21828016547096,,,0,,0,
2089,,Hwy 99 & N 205th St,,47.777290408840805,-122.34630164258749,,,0,,0,
209,,172nd St NE & 3rd Ave NE,,48.1519399383047,-122.2277576039476,,,0,,0,
2090,,Smokey Point Blvd & 169th Pl NE,,48.149396879028984,-122.183070897974,,,0,,0,
2091,,McCollum Park P&R - Bay 1,,47.879129181973646,-122.22075918625973,,,0,,0,
2092,,McCollum Park P&R - Bay 2,,47.879288950608725,-122.22069825599333,,,0,,0,
2097,,Mountlake Terrace TC - Bay 1,,47.78523578726792,-122.3150107517801,,,0,,0,
2098,,Mountlake Terrace TC - Bay 2,,47.78525497397746,-122.3150112999693,,,0,,0,
2103,,Mariner P&R - Bay 1,,47.879791716985906,-122.23880839288053,,,0,,0,
2104,,Mariner P&R - Bay 2,,47.879528432088016,-122.23881347183774,,,0,,0,
2105,,Mariner P&R - Bay 3,,47.87973471923874,-122.2385378406147,,,0,,0,
2106,,Mariner P&R - Bay 4,,47.87970943732705,-122.23881023471444,,,0,,0,
2109,,Lynnwood Transit Center - Bay C1,,47.81595991465087,-122.29711826749848,,,0,,0,
2111,,Lynnwood Transit Center - Bay C3,,47.81595496762345,-122.29643422143998,,,0,,0,
2112,,Lynnwood Transit Center - Bay C5,,47.81595223652651,-122.29579094685211,,,0,,0,
2113,,Lynnwood Transit Center - Bay D1,,47.815856487987524,-122.29705835433596,,,0,,0,
2114,,Lynnwood Transit Center - Bay D2,,47.81585042462848,-122.29667552197867,,,0,,0,
2115,,Lynnwood Transit Center - Bay A2,,47.8162112414904,-122.29676305642055,,,0,,0,
2120,,Lynnwood Transit Center - Bay B4,,47.816091744962264,-122.29603099451727,,,0,,0,
2124,,Edmonds CC Transit Center - Bay 2,,47.815896776718134,-122.32510379126353,,,0,,0,
2127,,Edmonds CC Transit Center - Bay 5,,47.81589571391585,-122.32518517857753,,,0,,0,
2131,,Ash Way P&R - Bay 1,,47.85276058822436,-122.25841490990865,,,0,,0,
2132,,Canyon Park P&R - Bay 1,,47.793720567301946,-122.21111699634625,,,0,,0,
2134,,Canyon Park P&R - Bay 2,,47.79385158893371,-122.2113931043497,,,0,,0,
2137,,132nd St SE & 16th Ave SE,,47.8782831660624,-122.21135834219294,,,0,,0,
2143,,209th St NE & Jensen Farm Ln,,48.182929739062565,-122.12247043402624,,,0,,0,
2144,,Eastmont P&R - Bay 1,,47.91528510992511,-122.20471298146029,,,0,,0,
215,,180th St SE & Hwy 527,,47.83462783267418,-122.20968003915625,,,0,,0,
2150,,I-405 & Brickyard Fwy Station,,47.74376879926793,-122.18611574395808,,,0,,0,
2151,,I-405 & Brickyard Fwy Station,,47.7417710923431,-122.18786851356829,,,0,,0,
2158,,I-5 & NE 145th St Fwy Station,,47.73273860396347,-122.32379114657724,,,0,,0,
2162,,Ash Way P&R - Bay 2,,47.85283576222704,-122.25832328255161,,,0,,0,
2163,,Ash Way P&R - Bay 3,,47.852916519630895,-122.25822366106709,,,0,,0,
2165,,I-5 & NE 145th St Fwy Station,,47.73253575305986,-122.32504527350402,,,0,,0,
2166,,I-5 & NE 45th St Fwy Station,,47.66054462705845,-122.3229510278815,,,0,,0,
2168,,Lynnwood Transit Center - Bay B2,,47.81609431832874,-122.2966864790796,,,0,,0,
2169,,Ash Way & 164th St SW,,47.85011952673905,-122.26066007531965,,,0,,0,
2171,,48th Ave W & 200th St SW,,47.820558631154825,-122.29772449481577,,,0,,0,
2188,,Brier Rd & 228th St SW,,47.7910422406923,-122.27438581029571,,,0,,0,
2193,,State Ave Access Rd & State Ave,,48.04858457478355,-122.17649988959644,,,0,,0,
2194,,27th Ave NE & Marine Dr,,48.05642079417666,-122.19487052922214,,,0,,0,
2195,,27th Ave NE & 74th St NE,,48.06367077672882,-122.19481648532569,,,0,,0,
2196,,27th Ave NE & 81st St NE,,48.069446218973184,-122.19471532063794,,,0,,0,
2198,,27th Ave NE & 88th St NE,,48.075605510193334,-122.19484519460815,,,0,,0,
2199,,27th Ave NE & 81st St NE,,48.069509625345944,-122.19491744271676,,,0,,0,
22,,Seeman St & Fullerton Ave,,48.255153913741,-121.6082015737738,,,0,,0,
2200,,27th Ave NE & 74th St NE,,48.063004799580085,-122.1950238713643,,,0,,0,
2201,,64th St NW & Joseph Charles Jr Loop,,48.053755090069316,-122.26763539401652,,,0,,0,
2202,,Totem Beach Rd & 64th St NW,,48.05542008844812,-122.27086759198822,,,0,,0,
2203,,Totem Beach Rd & Alphonsus Bob Loop Rd,,48.059821128216576,-122.27521121467589,,,0,,0,
2204,,Totem Beach Rd & Senior Center Driveway,,48.06181798316661,-122.27776617799898,,,0,,0,
2205,,76th Pl NW & Marine Dr,,48.0656543392494,-122.27685506737271,,,0,,0,
2207,,220th St SE & 17th Ave SE,,47.798331635857686,-122.21027508310196,,,0,,0,
2208,,20th Ave SE & 220th St SE,,47.79881638108368,-122.20576681036201,,,0,,0,
2209,,223rd St SE & 23rd Dr SE,,47.79605730912463,-122.20171408268263,,,0,,0,
2211,,29th Dr SE & Panasonic Avionics,,47.79264485092108,-122.19611060639238,,,0,,0,
2212,,228th St SE & 35th Ave SE,,47.79080199832785,-122.18668360343345,,,0,,0,
2213,,35th Ave SE & 228th St SE,,47.79091400204222,-122.1864871554873,,,0,,0,
2214,,35th Ave SE & Monte Villa Pkwy,,47.77970044933663,-122.1859586586743,,,0,,0,
2215,,120th Ave NE & North Creek Pkwy N,,47.77445609761792,-122.18031856897291,,,0,,0,
2216,,120th Ave NE & North Creek Pkwy N,,47.77480646582174,-122.18013649352078,,,0,,0,
2219,,NE 185th St & 103rd Ave NE,,47.76192679552617,-122.20211520926401,,,0,,0,
2220,,NE 185th St & Ross Rd,,47.761890498141234,-122.19988172318861,,,0,,0,
2221,,228th St SE & 27th Ave SE,,47.79118345920229,-122.19679645105843,,,0,,0,
2222,,228th St SE & 29th Dr SE,,47.79131956687344,-122.19664948283918,,,0,,0,
2225,,20th St NE & Main St,,48.01545794941605,-122.06360444243047,,,0,,0,
2227,,214th St SE & Hwy 527,,47.80374793858786,-122.20791193053527,,,0,,0,
2228,,29th Dr SE & Panasonic Avionics,,47.79265152357484,-122.19578119731099,,,0,,0,
2229,,UW Bothell & Cascadia College,,47.76160491968367,-122.19303026550436,,,0,,0,
2230,,UW Bothell & Library,,47.76081741534857,-122.19123665840061,,,0,,0,
2231,,Village Wy & W Main St,,47.85072957707393,-121.98623688107033,,,0,,0,
2232,,UW Bothell & Library,,47.76092076872062,-122.1910767052875,,,0,,0,
2233,,NE 195th St & North Creek Pkwy,,47.76899024765477,-122.1832106844343,,,0,,0,
2234,,NE 195th St & 120th Ave NE,,47.769136767954805,-122.18218145688519,,,0,,0,
2237,,Hwy 99 & 224th St SW,,47.796442425701805,-122.33389546367577,,,0,,0,
2248,,Hwy 530 & Jim Creek Rd,,48.23656761107492,-122.06129546170308,,,0,,0,
2249,,132nd St SE & Hwy 527,,47.87816512545246,-122.20703905788946,,,0,,0,
2253,,Hwy 99 & 220th St SW,,47.79961563067592,-122.33196063430884,,,0,,0,
226,,194th St SW & 48th Ave W,,47.82277578031835,-122.2975957917623,,,0,,0,
2263,,I-5 & 4th St,,48.05182031385889,-122.18347471285055,,,0,,0,
227,,194th St SW & 44th Ave W,,47.8226941101385,-122.29304980288126,,,0,,0,
2284,,212th St SW & 78th Ave W,,47.8069761491468,-122.33897067296661,,,0,,0,
2290,,5th Ave & Jefferson St,,47.603113986347026,-122.3287588665997,,,0,,0,
23,,State Ave & 92nd St NE,,48.0794825522035,-122.17503391943858,,,0,,0,
230,,196th St SW & 64th Ave W,,47.82115491466697,-122.3192866182088,,,0,,0,
231,,196th St SW & 68th Ave W,,47.821235320228915,-122.3244798456315,,,0,,0,
2315,,64th St NE & 67th Ave NE,,48.05358033827593,-122.1408673963926,,,0,,0,
232,,196th St SW & 74th Ave W,,47.82136667670182,-122.33496729915473,,,0,,0,
2325,,NE 195th St & Ross Rd,,47.76796713805706,-122.19110251105256,,,0,,0,
2326,,Boeing & Gate E-68,,47.91768430483459,-122.27608661053529,,,0,,0,
2327,,Boeing & Gate E-72,,47.925824002201765,-122.27877769699798,,,0,,0,
2328,,Boeing & Gate E-84,,47.93233812337694,-122.27861297919084,,,0,,0,
2329,,Boeing & Gate E-82,,47.93088532391344,-122.27073897736453,,,0,,0,
233,,196th St SW & 80th Ave W,,47.821376993490375,-122.34063897304411,,,0,,0,
2330,,Boeing & Gate E-78,,47.931631083236866,-122.26592904850025,,,0,,0,
234,,196th St SW & 84th Ave W,,47.821404121052964,-122.3462622919809,,,0,,0,
2340,,27th Ave NE & 88th St NE,,48.07623287001435,-122.1946571927709,,,0,,0,
2342,,Everett Station - Bay B2,,47.97444579216358,-122.19716524819195,,,0,,0,
2344,,Everett Station - Bay B4,,47.97425753878271,-122.19708678082768,,,0,,0,
2345,,Everett Station - Bay C1,,47.97481748796449,-122.19772630326665,,,0,,0,
2346,,Everett Station - Bay C2,,47.97463745792409,-122.19764805041774,,,0,,0,
2347,,Everett Station - Bay C3,,47.97443290476905,-122.19755690085543,,,0,,0,
2349,,2nd Ave Ext S & S Washington St,,47.6004831113907,-122.3309413786176,,,0,,0,
235,,196th St SW & Heinz Pl,,47.82130477325867,-122.33049111606911,,,0,,0,
2350,,I-405 & NE 195th St Flyer Stop,,47.76914241940953,-122.18864827733705,,,0,,0,
2354,,99th St NE & 31st Ave NE,,48.085483574997916,-122.18864061388626,,,0,,0,
2355,,Wetmore Ave & Wall St,,47.97719300162387,-122.20727496229706,,,0,,0,
2356,,Pacific Ave & Rockefeller Ave,,47.976648854003194,-122.20554953000259,,,0,,0,
2358,,Quil Ceda Blvd & 31st St NE,,48.07747161325295,-122.1868180210931,,,0,,0,
2359,,Pacific Ave & Rockefeller Ave,,47.976525838808726,-122.20483166240244,,,0,,0,
236,,196th St SW & Scriber Lake Rd,,47.82108922047679,-122.31060880970631,,,0,,0,
2364,,Broadway & 38th St,,47.96713822699904,-122.20089176754303,,,0,,0,
2365,,Broadway & 33rd St,,47.97363827670706,-122.20119446597849,,,0,,0,
2366,,Broadway & 38th St,,47.967134183254124,-122.20123052342494,,,0,,0,
2367,,Broadway & 34th St,,47.97291878744583,-122.2015184033736,,,0,,0,
2368,,Quil Ceda Blvd & Home Depot,,48.08029058974089,-122.18561951957358,,,0,,0,
237,,196th St SW & Hwy 99,,47.821099478485614,-122.3163781229661,,,0,,0,
238,,196th St SW & 86th Ave W,,47.82137354476822,-122.3493963379987,,,0,,0,
239,,196th St SW & 58th Pl W,,47.82109567620738,-122.31244107412391,,,0,,0,
240,,2nd St & Ash Ave,,48.049940398443184,-122.18292663305374,,,0,,0,
2405,,Hwy 99 & N 200th St,,47.774764186700295,-122.34595135256593,,,0,,0,
2406,,228th St SW & Meridian Ave S,,47.79135833970975,-122.23399857445307,,,0,,0,
2407,,228th St SW & 4th Ave W,,47.79141369332448,-122.23775158131,,,0,,0,
2408,,4th Ave W & 228th St SW,,47.79317543915622,-122.23830385784697,,,0,,0,
2409,,4th Ave W & 224th St SW,,47.795174284526276,-122.23830512122524,,,0,,0,
241,,Second St & Ave A,,47.912800362575815,-122.09412381481921,,,0,,0,
2410,,4th Ave W & 224th St SW (nearside),,47.79575845769532,-122.23851627371413,,,0,,0,
2411,,4th Ave W & 224th St SW (farside),,47.79483179693376,-122.23850743696069,,,0,,0,
2418,,Broadway St & E Gilman Ave,,48.19937007978074,-122.12530613308607,,,0,,0,
242,,Second St & Ave C,,47.91287120872752,-122.09689879078006,,,0,,0,
2421,,High St & 7th St,,47.869225754308445,-121.81332259776946,,,0,,0,
2422,,Lynnwood Transit Center - Bay D3,,47.81584631924741,-122.29635380794619,,,0,,0,
2423,,47th Pl W & 106th St SW,,47.90254004806308,-122.29665210636479,,,0,,0,
2424,,47th Pl W & 106th St SW,,47.90228211703506,-122.29688131614134,,,0,,0,
2425,,196th St SW & 30th Pl W,,47.82077308269977,-122.27395452147317,,,0,,0,
2426,,196th St SW & 30th Pl W,,47.82090963934415,-122.27421480552509,,,0,,0,
2427,,196th St SW & Alderwood Mall Pkwy,,47.82089148087113,-122.27130336774786,,,0,,0,
2428,,196th St SW & 40th Ave W,,47.820838681890855,-122.2867441042954,,,0,,0,
2429,,196th St SW & 37th Ave W,,47.82097009515101,-122.28373913356933,,,0,,0,
243,,Second St & Maple Ave,,47.912649082648265,-122.08867969337223,,,0,,0,
2430,,Alderwood Mall Pkwy & 196th St SW,,47.82122577608629,-122.2708851613986,,,0,,0,
2431,,Alderwood Mall Pkwy & 184th St SW,,47.831724708775866,-122.26848073709837,,,0,,0,
2432,,Alderwood Mall Pkwy & Maple Rd,,47.83596757892571,-122.27166479887705,,,0,,0,
2433,,Alderwood Mall Pkwy & 177th Pl SW,,47.83564091594904,-122.27147654467507,,,0,,0,
244,,Second St & Pine Ave,,47.91258630507849,-122.08590086250739,,,0,,0,
2440,,Hewitt Ave & Lombard Ave,,47.97929802464253,-122.20275316995091,,,0,,0,
2442,,148th St SW & 35th Ave W,,47.86408978533612,-122.28028148933365,,,0,,0,
2443,,148th St SW & 35th Ave W,,47.86422760662115,-122.28022422089985,,,0,,0,
2444,,148th St SW & 29th Ave W,,47.86410671089022,-122.27242198982168,,,0,,0,
2445,,148th St SW & Admiralty Wy,,47.864251106533814,-122.27293125871802,,,0,,0,
2446,,148th St SW & Manor Wy,,47.864051852089936,-122.26849660066542,,,0,,0,
2447,,148th St SW & Manor Wy,,47.86419823906304,-122.26906703234066,,,0,,0,
2448,,Jefferson Wy & 21st Ave W,,47.861992188320556,-122.26042913261938,,,0,,0,
2449,,Jefferson Wy & 19th Ave W,,47.86208341776675,-122.25927042566836,,,0,,0,
245,,20th St NE & 112th Dr NE,,48.01538979037472,-122.07931496666838,,,0,,0,
2450,,18th Ave W & 151st Pl SW,,47.86069892166911,-122.25771664335808,,,0,,0,
2451,,18th Ave W & 152nd St SW,,47.86013428084326,-122.25792112474777,,,0,,0,
2452,,18th Ave W & Oak Rd,,47.857202954742334,-122.25771826610375,,,0,,0,
2453,,18th Ave W & Oak Rd,,47.85728538802346,-122.25792423744525,,,0,,0,
2454,,18th Ave W & Ash Wy,,47.855434413482705,-122.25771851199191,,,0,,0,
2455,,18th Ave W & Ash Wy,,47.85545111398988,-122.25791859421058,,,0,,0,
2456,,134th St SW & Ash Wy,,47.87680334225555,-122.24435158866335,,,0,,0,
2457,,134th St SW & Ash Wy,,47.876944032603376,-122.24383782040593,,,0,,0,
2458,,Alderwood Mall Pkwy & 164th St SW,,47.84895823563499,-122.27106013773275,,,0,,0,
2459,,Alderwood Mall Pkwy & 164th St SW,,47.84894471087792,-122.27126343421689,,,0,,0,
2460,,Smokey Point Blvd & 174th Pl NE,,48.15373680415063,-122.18286096530915,,,0,,0,
2461,,88th St NE & 36th Ave NE,,48.07562387557685,-122.18213821991952,,,0,,0,
2463,,88th St NE & State Ave,,48.07567827534816,-122.17679646007115,,,0,,0,
2465,,4th St & Beach Ave,,48.05197312285917,-122.1816712053819,,,0,,0,
2466,,Wetmore Ave & Wall St,,47.977740755792546,-122.2070976026167,,,0,,0,
2472,,Marine Dr & Lakewood Rd,,48.16801169358606,-122.35768341417521,,,0,,0,
2473,,Smokey Point Blvd & 116th St NE,,48.100290134092354,-122.17525218996869,,,0,,0,
2474,,Smokey Point Blvd & 113th Pl NE,,48.0976720020545,-122.17452505784021,,,0,,0,
2475,,120th Ave NE & NE 195th St,,47.769800733950376,-122.18005533940592,,,0,,0,
2476,,120th Ave NE & NE 195th St,,47.76985863823467,-122.18026019971518,,,0,,0,
2477,,Smokey Point Blvd & 136th St NE,,48.117914381059514,-122.18179987860978,,,0,,0,
2478,,Smokey Point Blvd & 136th St NE,,48.11912635612853,-122.18202404927949,,,0,,0,
2479,,Smokey Point Blvd & 106th Pl NE,,48.091825320904476,-122.1732188532418,,,0,,0,
248,,20th St NE & 116th Ave NE,,48.01556103084022,-122.07414162722043,,,0,,0,
2480,,Smokey Point Blvd & 105th Pl NE,,48.090992494197366,-122.17363100904171,,,0,,0,
2482,,Smokey Point Blvd & 186th Pl NE,,48.16578030757566,-122.1848160681595,,,0,,0,
2483,,52nd Ave W & Beverly Park Rd,,47.865753521390694,-122.30354608439352,,,0,,0,
2484,,Airport Rd & W Casino Rd,,47.92009840348525,-122.27185055678504,,,0,,0,
249,,20th St NE & 118th Ave NE,,48.01555303066966,-122.07132999278411,,,0,,0,
2490,,10th St & Ash Ave,,48.05726352239333,-122.1838789219928,,,0,,0,
250,,Alderwood Mall Blvd & 44th Ave W,,47.817258866820374,-122.29138638885468,,,0,,0,
2502,,Eastmont Park & Ride - Bay 3,,47.91529216994312,-122.20526785795533,,,0,,0,
2503,,30th Ave NE & 99th St NE,,48.087501710959856,-122.19141089155781,,,0,,0,
2508,,67th Ave NE & Grove St,,48.06503218315189,-122.14067503761744,,,0,,0,
2509,,67th Ave NE & 80th Pl NE,,48.06880564161737,-122.14036571131548,,,0,,0,
251,,200th St SW & 53rd Pl W,,47.81739122837137,-122.30458824628363,,,0,,0,
2511,,31st Ave NE & Walmart,,48.079828368574915,-122.1897071754703,,,0,,0,
2512,,67th Ave NE & 77th Pl NE,,48.065589713380355,-122.14083233394827,,,0,,0,
2513,,67th Ave NE & 80th Pl NE,,48.06874017789867,-122.1405767672484,,,0,,0,
2514,,67th Ave NE & 88th St NE,,48.07425095410077,-122.14011097625576,,,0,,0,
2515,,99th St NE & 31st Ave NE,,48.08562223998025,-122.18990052017864,,,0,,0,
2517,,Ash Ave & 6th St,,48.0537275407098,-122.18379862404097,,,0,,0,
252,,200th St SW & 56th Ave W (farside),,47.8173972271655,-122.30795105755863,,,0,,0,
2520,,Smokey Point Blvd & 182nd St NE,,48.16169444005885,-122.18300399745827,,,0,,0,
2521,,47th Ave NE & 188th St NE,,48.16713962891738,-122.16677727073964,,,0,,0,
2522,,47th Ave NE & 193rd Pl NE,,48.17245199810676,-122.16687390900424,,,0,,0,
2523,,Cemetery Rd & Highclover Blvd,,48.176706023047494,-122.1643687976635,,,0,,0,
2524,,Cemetery Rd & 53rd Ave NE,,48.176843472506356,-122.15863745636646,,,0,,0,
2525,,204th St NE & 65th Dr NE,,48.18095221677996,-122.14003680111699,,,0,,0,
2526,,47th Ave NE & 188th St NE,,48.16695361244798,-122.16697737711726,,,0,,0,
2527,,47th Ave NE & 193rd Pl NE,,48.17242495466908,-122.16707815511705,,,0,,0,
2528,,Cemetery Rd & 49th Ave NE,,48.17657342499978,-122.1642177948861,,,0,,0,
2529,,Cemetery Rd & 53rd Ave NE,,48.17670028645897,-122.15892891651416,,,0,,0,
253,,200th St SW & 64th Ave W,,47.81754719173211,-122.31923203088867,,,0,,0,
2530,,Smokey Point Blvd & 186th Pl NE,,48.165804449099014,-122.18462817442732,,,0,,0,
2531,,188th St NE & 35th Ave NE,,48.16692856346766,-122.183928148138,,,0,,0,
2532,,91st Ave NE & 11th Pl SE,,47.98586634365626,-122.10874330610316,,,0,,0,
254,,200th St SW & 66th Pl W,,47.817587454481085,-122.32245743601693,,,0,,0,
2541,,Vernon Rd & 15th St NE,,48.00971657629587,-122.10558150122951,,,0,,0,
2542,,Vernon Rd & 95th Ave NE,,48.01048213638016,-122.1045379978086,,,0,,0,
2543,,Lynnwood Transit Center - Bay D4,,47.81584779909625,-122.29602410989257,,,0,,0,
2544,,Lynnwood Transit Center - Bay D5,,47.8158515501321,-122.29573111368641,,,0,,0,
255,,200th St SW & 68th Ave W,,47.817645564750904,-122.32451904736577,,,0,,0,
2550,,271st St NW & 88th Ave NW,,48.242210609564815,-122.3523559631923,,,0,,0,
2551,,271st St NW & 92nd Ave NW,,48.24219990195764,-122.35773278455802,,,0,,0,
2552,,271st St NW & 94th Dr NW,,48.24219052335012,-122.36113118909473,,,0,,0,
2553,,271st St NW & 97th Dr NW,,48.242174090390684,-122.36464021193784,,,0,,0,
2554,,272nd Pl NW & 100th Ave NW,,48.24365754860019,-122.36792721264212,,,0,,0,
2555,,271st St NW & 101st Ave NW,,48.24236216344797,-122.3696658769363,,,0,,0,
2557,,148th St SE & 51st Ave SE,,47.86312041756238,-122.16367464708101,,,0,,0,
2558,,148th St SE & 51st Ave SE,,47.86328727305828,-122.1641800928923,,,0,,0,
2559,,148th St SE & 48th Ave SE,,47.86344003315812,-122.16754138874781,,,0,,0,
256,,N 200th St & Hwy 99,,47.774125044562595,-122.34472869312614,,,0,,0,
2560,,148th St SE & 48th Ave SE,,47.863299860098124,-122.16757037279876,,,0,,0,
2562,,148th St SE & 35th Ave SE,,47.86332994486947,-122.18647673274748,,,0,,0,
2563,,148th St SE & 35th Ave SE,,47.86346882126646,-122.1865577773246,,,0,,0,
2564,,148th St SE & 30th Ave SE,,47.863410919667224,-122.19074892119887,,,0,,0,
2565,,148th St SE & 30th Ave SE,,47.863547680629104,-122.19077695335834,,,0,,0,
2568,,Mill Creek Road & Hwy 527,,47.84947336727127,-122.21664495848215,,,0,,0,
2569,,S Stillaguamish Ave & Portage St,,48.186021965966084,-122.11784933002903,,,0,,0,
257,,200th St SW & Cedar Valley Rd,,47.81733518418782,-122.29999051321266,,,0,,0,
2570,,S Stillaguamish Ave & Portage St,,48.18606631974518,-122.11805133613429,,,0,,0,
2571,,Cedar Ave & 5th St,,48.052311822207585,-122.180379626,,,0,,0,
2572,,Vernon Rd & N Davies Rd,,48.00449156391194,-122.10624945633066,,,0,,0,
2573,,127th Ave NE & 18th St NE,,48.01335644064326,-122.05988903280257,,,0,,0,
2574,,127th Ave NE & 18th St NE,,48.01391095127341,-122.06008200118929,,,0,,0,
2575,,16th St NE & 18th St NE,,48.011761299963425,-122.06034964265366,,,0,,0,
2576,,16th St NE & Main St,,48.01179503256913,-122.06359888737408,,,0,,0,
2577,,16th St NE & Main St,,48.01193998120162,-122.06388836842633,,,0,,0,
2579,,Main St & 18th St NE,,48.0135704456673,-122.06422552316842,,,0,,0,
258,,200th St SW & Hwy 99,,47.81750732699967,-122.31723609072172,,,0,,0,
2580,,Village Wy & Village Ct,,47.848992987986385,-121.98361990090108,,,0,,0,
2582,,Village Wy & Sky River Pkwy,,47.84980261698316,-121.98081104650045,,,0,,0,
2584,,Chain Lake Rd & Hwy 2,,47.85980463170278,-121.96982093915076,,,0,,0,
259,,200th St SW & 56th Ave W (nearside),,47.81740695139315,-122.31017002788721,,,0,,0,
260,,200th St SW & 60th Ave W,,47.81746021438938,-122.31473921343019,,,0,,0,
2606,,Bickford Ave & 19th St,,47.93543288841286,-122.10413737123868,,,0,,0,
2607,,Bickford Ave & 19th St,,47.93527286614826,-122.10422728047463,,,0,,0,
2610,,148th St SW & 22nd Ave W,,47.86394242764854,-122.26278503599978,,,0,,0,
2611,,Marine Dr NE & 14th Ave NE,,48.05047597813479,-122.21214216617386,,,0,,0,
2612,,Marine Dr NE & 14th Ave NE,,48.050241455076254,-122.21272066453318,,,0,,0,
2613,,Marine Dr NE & 7th Ave NE,,48.042391884676775,-122.22247079515375,,,0,,0,
2614,,Marine Dr NE & 7th Dr NW,,48.03820542800382,-122.24290199896276,,,0,,0,
2615,,Marine Dr NE & 7th Dr NW,,48.03834585482823,-122.24352317688059,,,0,,0,
2616,,Marine Dr NE & 19th Ave NE,,48.05306033914302,-122.20606472909118,,,0,,0,
2617,,36th Ave W & Maple Rd,,47.83486391657645,-122.28154622605618,,,0,,0,
2618,,76th Ave W & 239th Pl SW,,47.78229223047196,-122.33526387617486,,,0,,0,
2619,,172nd St NE & 19th Dr NE,,48.15196435015802,-122.20727968725762,,,0,,0,
262,,Alderwood Mall Blvd & 40th Ave W,,47.817533061450526,-122.28729868935193,,,0,,0,
2621,,137th St SE & Puget Park Dr,,47.873355392046115,-122.15376989495493,,,0,,0,
2622,,E Stanley St & S Indiana Ave,,48.08335186516355,-121.96575461242573,,,0,,0,
2623,,188th St NE & 46th Ave NE,,48.16693100197337,-122.1686899638751,,,0,,0,
2624,,47th Ave NE & 191st Pl NE,,48.16923963161754,-122.16702840886512,,,0,,0,
2625,,47th Ave NE & 191st Pl NE,,48.1693187523825,-122.1668255244995,,,0,,0,
2626,,204th St NE & 74th Ave NE,,48.1807781142004,-122.13168155133431,,,0,,0,
2627,,204th St NE & 74th Ave NE,,48.18091656045381,-122.13180393203905,,,0,,0,
2628,,E Stanley St & N Kentucky Ave,,48.0834885153885,-121.9657985305528,,,0,,0,
263,,204th St SW & 23rd Ave W,,47.8133983227823,-122.26383345827136,,,0,,0,
2631,,2nd Ave & Cherry St,,47.60305412718726,-122.33330601945214,,,0,,0,
2638,,4th Ave & Cherry St,,47.6043998720547,-122.33126897606414,,,0,,0,
264,,204th St SW & 30th Ave W,,47.81351044019287,-122.27345957177076,,,0,,0,
2641,,148th St SW & 40th Ave W,,47.864095241995614,-122.28763229685049,,,0,,0,
2642,,148th St SW & 40th Ave W,,47.86423001040347,-122.28781536688271,,,0,,0,
2644,,236th St SW & 59th Pl SW,,47.784885382307834,-122.31306415817014,,,0,,0,
2645,,Hwy 527 & 136th St SE,,47.874531217561696,-122.21440060142966,,,0,,0,
2646,,Hwy 527 & Trillium Blvd,,47.871495495558065,-122.21716000783042,,,0,,0,
2647,,Hwy 527 & 144th St SE,,47.86822631392843,-122.21813618216053,,,0,,0,
2648,,Hwy 527 & 153rd St SE,,47.85964893330102,-122.21887647761083,,,0,,0,
265,,204th St NE & 67th Ave NE,,48.180813360415414,-122.1399512837573,,,0,,0,
2650,,Hwy 527 & Dumas Rd,,47.873916435012326,-122.21535820930299,,,0,,0,
2651,,Hwy 527 & Heatherwood Dr,,47.87077645411731,-122.21789468321994,,,0,,0,
2652,,Hwy 527 & 153rd St SE,,47.85889108331747,-122.2189662037056,,,0,,0,
2653,,Hwy 527 & Mill Creek Blvd,,47.85459029292629,-122.21841116326082,,,0,,0,
266,,204th St NE & 71st Ave NE,,48.18080915247133,-122.13645423771806,,,0,,0,
2661,,244th St SW & Hwy 99,,47.7778559679888,-122.34376347999475,,,0,,0,
2662,,212th St SW & 74th Ave W,,47.806794638116,-122.33150474081766,,,0,,0,
2663,,44th Ave W & 198th St SW,,47.81850864556009,-122.29228868702097,,,0,,0,
2665,,Lake Stevens TC - Bay 1,,47.99940374091492,-122.10443688879018,,,0,,0,
2666,,Lake Stevens TC - Bay 2,,47.99977178390841,-122.10413138854362,,,0,,0,
2667,,McCollum Park P&R - Bay 3,,47.87945968320189,-122.22063761918565,,,0,,0,
2668,,Airport Rd & 94th St SW,,47.91377638079983,-122.27178487406155,,,0,,0,
2669,,4th St NE & 97th Dr NE,,47.999716832821605,-122.10067398152108,,,0,,0,
267,,204th St NE & 77th Ave NE,,48.18076440537679,-122.12608119958938,,,0,,0,
2670,,99th Ave NE & 4th St NE,,47.998671337841785,-122.09827080613363,,,0,,0,
2671,,Market Pl & 99th Ave NE,,47.99630345596922,-122.09917276472017,,,0,,0,
2673,,220th St SW & 64th Ave W,,47.799519756939524,-122.3185200119467,,,0,,0,
2675,,105th St NE & 30th Ave NE,,48.090778176890886,-122.19233616113127,,,0,,0,
2676,,33rd Ave W & Alderwood Mall Blvd,,47.823758923875566,-122.27765705901408,,,0,,0,
2677,,33rd Ave W & 188th St SW,,47.826769286132,-122.2776798920198,,,0,,0,
2678,,33rd Ave W & 188th St SW,,47.82747140117625,-122.27788269186705,,,0,,0,
2679,,33rd Ave W & Alderwood Mall Blvd,,47.823756351258226,-122.27786056055308,,,0,,0,
268,,204th St SW & Poplar Wy,,47.813505307751235,-122.27842563178334,,,0,,0,
269,,204th St SW & Larch Wy,,47.81358012971846,-122.28614570833436,,,0,,0,
2690,,State Ave & 100th St NE,,48.08607559951154,-122.17229602581666,,,0,,0,
2697,,148th St SW & Hwy 525,,47.86409961723086,-122.27755175675036,,,0,,0,
2698,,5th Ave & Pine St,,47.61169992292826,-122.33661267433516,,,0,,0,
270,,N 205th St & Fremont Ave N,,47.777684703228694,-122.35130041544949,,,0,,0,
2700,,5th Ave & Seneca St,,47.6082374066973,-122.33344732100753,,,0,,0,
2702,,5th Ave & Marion St,,47.6059371830426,-122.331341609096,,,0,,0,
2703,,I -5 & NE 195th St,,47.770283507258625,-122.32135573849445,,,0,,0,
2704,,Hwy 522 & 132nd Ave NE Flyer Stn,,47.75741837172668,-122.1655715285474,,,0,,0,
2705,,Hwy 522 & 132nd Ave NE Flyer Stn,,47.758790698963274,-122.16451294028757,,,0,,0,
2706,,5th Ave S & S Jackson St,,47.5989947360433,-122.32777296597176,,,0,,0,
2707,,I-5 & NE 195th St,,47.7702760850895,-122.32192494926795,,,0,,0,
271,,N 205th St & 91st Ave W,,47.77768198604885,-122.35541707650478,,,0,,0,
2710,,72nd Ave W & 216th St SW,,47.803788895186756,-122.33029049914701,,,0,,0,
2711,,72nd Ave W & 216th St SW,,47.80405769934199,-122.33007441287626,,,0,,0,
2713,,44th Ave W & 196th St SW,,47.820123684858174,-122.29250107263637,,,0,,0,
272,,N 205th St & Hwy 99,,47.77771671806963,-122.34371874562804,,,0,,0,
2721,,88th St NE & 36th Ave NE,,48.075732669597386,-122.18057820271838,,,0,,0,
2724,,I-405 & NE 195th St Flyer Stop,,47.767849091027124,-122.19019248184766,,,0,,0,
2725,,148th St SE & Seattle Hill Rd,,47.86351013711352,-122.17887435208755,,,0,,0,
2726,,148th St SE & 42nd Dr SE,,47.86354159826022,-122.17549741219898,,,0,,0,
2727,,Dayton St & 2nd Ave S,,47.8096314350593,-122.38196245100929,,,0,,0,
2728,,State Ave & 128th St NE,,48.11088348349698,-122.17907758533875,,,0,,0,
2729,,State Ave & 128th St NE,,48.111053094340306,-122.17934403487072,,,0,,0,
273,,N 205th St & Greenwood Ave N,,47.777691111440475,-122.35802081931068,,,0,,0,
2733,,52nd Ave W & 154th St SW,,47.85889827058061,-122.3035755431636,,,0,,0,
2735,,52nd Ave W & 151st St SW,,47.86145964345455,-122.30375827757813,,,0,,0,
2736,,Canyon Park Fwy Station - Bay 3,,47.79374799059665,-122.21406778305898,,,0,,0,
2737,,33rd Ave W & 188th St SW,,47.828365318961815,-122.27787911012247,,,0,,0,
2739,,31st Ave NE & Quil Ceda Blvd,,48.0775038418871,-122.18896685753779,,,0,,0,
274,,N 205th St & Whitman Ave N,,47.777717304982204,-122.34740023042775,,,0,,0,
2742,,Aurora Village Terminal - Bay 9,,47.774307,-122.341043,,,0,,0,
2744,,NE 185th St & Hwy 527,,47.76161923527772,-122.20671852708347,,,0,,0,
2745,,NE 185th St & 101st Ave NE,,47.76183938535018,-122.20551252650795,,,0,,0,
2746,,Hwy 527 & NE 190th St,,47.76628914425658,-122.21009566370884,,,0,,0,
2747,,238th St SW NB Station &,,47.78352617532751,-122.3431597016039,,,0,,0,
2748,,238th St SW SB Station &,,47.7828403379205,-122.3440144236741,,,0,,0,
2749,,228th St SE & 10th Ave SE,,47.791352798276726,-122.21871981515496,,,0,,0,
2750,,228th St SE & 10th Ave SE,,47.79121522678004,-122.21853304126768,,,0,,0,
2751,,228th St SE & 9th Ave SE,,47.79134005344317,-122.22112417302509,,,0,,0,
2752,,228th St SE & 9th Ave SE,,47.79120273302017,-122.22091705515025,,,0,,0,
2753,,Gateway NB Station & 216th St SW,,47.80353241871223,-122.32872838020462,,,0,,0,
2754,,216th St SW SB Station &,,47.80284637060344,-122.32960803298586,,,0,,0,
2755,,72nd Ave W & 210th St SW,,47.80849693989838,-122.33007641529899,,,0,,0,
2756,,72nd Ave W & 210th St SW,,47.80835722677534,-122.33027589653294,,,0,,0,
2757,,228th St SE & 4th Ave SE,,47.79132985172786,-122.22669010947811,,,0,,0,
2758,,228th St SE & 4th Ave SE,,47.79119630016809,-122.22595005745367,,,0,,0,
2759,,228th St SE & Meridian Ave S,,47.79123615159062,-122.23255896343906,,,0,,0,
2760,,Cedar St & Hewitt Ave,,47.97875258631576,-122.19375887457893,,,0,,0,
2761,,Heron NB Station & 200th St SW,,47.81783405684478,-122.31783574649681,,,0,,0,
2762,,Smokey Point Blvd & 152nd St NE,,48.13397146467668,-122.18332613009477,,,0,,0,
2763,,228th St SW & 45th Pl W,,47.791811493204655,-122.29390566045075,,,0,,0,
2764,,Crossroads SB Station & 196th St SW,,47.820832624383584,-122.31560101558358,,,0,,0,
2765,,Mountlake Terrace FS - Bay 6,,47.787241452884786,-122.31639036529904,,,0,,0,
2766,,Mountlake Terrace FS - Bay 7,,47.787552501712206,-122.31629754450289,,,0,,0,
2767,,Cherry Hill NB Station & 176th St SW,,47.839626631631816,-122.29897215738504,,,0,,0,
2768,,Everett Station - Bay A4,,47.974353035971845,-122.1971260506116,,,0,,0,
277,,208th St SW & 72nd Ave W,,47.81043072997283,-122.32939550011423,,,0,,0,
2770,,International SB Station & 174th Pl SW,,47.84082239162585,-122.29830953489477,,,0,,0,
2771,,48th Ave W & 228th St SW,,47.79180577639828,-122.29756350734309,,,0,,0,
2774,,228th St SW & 46th Ave W,,47.791963304474244,-122.29489870009405,,,0,,0,
2775,,Brier Rd & 232nd St SW,,47.78790831939253,-122.27437602552527,,,0,,0,
2776,,236th St SW & Brier Rd,,47.784307501756544,-122.27334024567935,,,0,,0,
2777,,148th St SW NB Station &,,47.86393935127351,-122.28198455447772,,,0,,0,
2778,,148th St SW SB Station &,,47.86379864429048,-122.28248587049913,,,0,,0,
2779,,Lincoln Way NB Station &,,47.87335618842351,-122.27321704771842,,,0,,0,
2780,,Lincoln Way SB Station &,,47.872671465588,-122.27424535796276,,,0,,0,
2781,,Airport Rd NB Station &,,47.889553064926744,-122.25807863944094,,,0,,0,
2782,,Airport Rd SB Station &,,47.88921841196648,-122.25875021824287,,,0,,0,
2783,,112th St SW NB Station &,,47.89682707826483,-122.25125799044626,,,0,,0,
2784,,112th St SW SB Station &,,47.89599272230794,-122.2524297254862,,,0,,0,
2787,,4th Ave W NB Station &,,47.909703077821504,-122.23925395784048,,,0,,0,
2788,,4th Ave W SB Station &,,47.90998095467853,-122.23940016858238,,,0,,0,
2795,,Casino Rd NB Station &,,47.92116938551711,-122.22851945821829,,,0,,0,
2796,,Casino Rd SB Station &,,47.92129717510875,-122.22883291638854,,,0,,0,
28,,W Main St & 179th Ave SE,,47.85071244591173,-121.99091675021094,,,0,,0,
2807,,Madison St NB Station &,,47.93652512492995,-122.21870858128452,,,0,,0,
2810,,Pecks Dr SB Station &,,47.941408428976196,-122.2177988581861,,,0,,0,
2815,,50th St NB Station &,,47.95207793284332,-122.21340720766139,,,0,,0,
2816,,50th St SB Station &,,47.95165560037707,-122.2138693834433,,,0,,0,
2819,,40th St NB Station &,,47.96490701308007,-122.2106797479847,,,0,,0,
2820,,41st St SB Station &,,47.962880344190395,-122.21094415964835,,,0,,0,
283,,212th St SW & 80th Ave W,,47.806849403787396,-122.34088812603454,,,0,,0,
2835,,Colby Ave NB Station &,,47.97646884436033,-122.20798663938857,,,0,,0,
2836,,Wetmore Ave SB Station &,,47.97662028300056,-122.20679013689308,,,0,,0,
2837,,Everett Station &,,47.97344919167681,-122.19704503010391,,,0,,0,
2838,,Everett Station Terminal - Bay G1,,47.97345273739112,-122.19674705148933,,,0,,0,
284,,212th St SW & 84th Ave W,,47.80686497042795,-122.34634672389402,,,0,,0,
2846,,N Olympic Ave & E 5th St,,48.1974052815896,-122.12643784605584,,,0,,0,
2847,,N Olympic Ave & E 3rd St,,48.194615825223046,-122.12653996363962,,,0,,0,
2849,,N Olympic Ave & E 5th St,,48.197484330327015,-122.12623478823262,,,0,,0,
2850,,I-405 & NE 128th St Flyer Stop,,47.715140371111474,-122.18544310618111,,,0,,0,
2851,,I-405 & NE 128th St Flyer Stop,,47.715689193515885,-122.18609933494001,,,0,,0,
2856,,NE 10th St & 102nd Ave NE,,47.619215722581416,-122.20460990710846,,,0,,0,
2857,,NE 8th St & 106th Ave NE,,47.61749728507996,-122.19953204652026,,,0,,0,
2858,,NE 8th St & 102nd Ave NE,,47.61756561355884,-122.20479351054954,,,0,,0,
286,,212th St SW & 77th Pl W,,47.806833855254126,-122.3379082886448,,,0,,0,
2860,,Bellevue Transit Center - Bay 8,,47.61549335673961,-122.1944632791144,,,0,,0,
2861,,Everett Station &,,47.97425551840186,-122.19748688546784,,,0,,0,
2862,,244th St SW & 1st Ave NE,,47.77768548327765,-122.33026932970151,,,0,,0,
2863,,Hwy 527 & 186th Pl SE,,47.82794699918314,-122.20912798583996,,,0,,0,
2864,,Darrington St & Givens Ave,,48.249831223866096,-121.60394274215402,,,0,,0,
2865,,W Main St & 174th Dr SE,,47.85033761731665,-121.99758858533671,,,0,,0,
2866,,W Main St & 174th Dr SE,,47.850478862259905,-121.9971803555231,,,0,,0,
2867,,South Everett Fwy Station - Bay 2,,47.89860105089168,-122.2144966528695,,,0,,0,
2868,,South Everett Fwy Station - Bay 3,,47.89823154325257,-122.21467026713229,,,0,,0,
2869,,South Everett Fwy Station - Bay 6,,47.89889033144451,-122.21438205474396,,,0,,0,
2871,,Beverly Park Rd & Picnic Point Rd,,47.87038220239792,-122.29604068791996,,,0,,0,
2872,,164th St SW & 36th Ave W,,47.84995897496579,-122.28127579709668,,,0,,0,
2873,,164th St SW & 36th Ave W,,47.850085120639676,-122.28019168915232,,,0,,0,
2875,,Aurora Village TC - Bay 5,,47.774422,-122.341429,,,0,,0,
2876,,Aurora Village TC - Bay 7,,47.774298,-122.342025,,,0,,0,
2877,,Aurora Village TC &,,47.77446247952923,-122.34202132681004,,,0,,0,
288,,220th St SE & 17th Ave SE,,47.798206191696764,-122.2099909634486,,,0,,0,
2882,,Cedar and Grove P&R &,,48.06121356625725,-122.17952003001542,,,0,,0,
2883,,Cedar and Grove P&R - Bay 1,,48.06121351830524,-122.17952411887468,,,0,,0,
2886,,Broadway & Wall St,,47.977608798612536,-122.20162626580722,,,0,,0,
2887,,Broadway & Pacific Ave,,47.9770522218999,-122.2013951021719,,,0,,0,
2888,,Smokey Point Blvd & 142nd St NE,,48.12499863417809,-122.18394280078634,,,0,,0,
2889,,Smokey Point Blvd & 147th St NE,,48.129757413535145,-122.18332217824197,,,0,,0,
289,,220th St SW & 54th Ave W,,47.79920680481451,-122.30563085268251,,,0,,0,
2890,,Smokey Point Blvd & 142nd St NE,,48.1246749145266,-122.18419230875881,,,0,,0,
2891,,Smokey Point Blvd & 147th St NE,,48.12938979260081,-122.18357465793785,,,0,,0,
290,,220th St SW & 66th Ave W,,47.799402087738365,-122.32145081910396,,,0,,0,
2903,,NE 185th St & Beardslee Blvd,,47.7620222352755,-122.19757946221925,,,0,,0,
2904,,NE 185th St & 103rd Ave NE,,47.762056561163625,-122.20226909511115,,,0,,0,
2905,,Boeing Access Rd & Seaway Blvd,,47.930889160406466,-122.26122886759394,,,0,,0,
2906,,Cedar St & Hewitt Ave,,47.9787474221679,-122.19396291841414,,,0,,0,
2907,,6th Ave S & S Atlantic St,,47.59075530508781,-122.3258705128011,,,0,,0,
2908,,Airport Wy S & S Royal Brougham Wy,,47.59206549681784,-122.32381653065308,,,0,,0,
2909,,2nd Ave & Seneca St,,47.60618696105234,-122.33610472875225,,,0,,0,
291,,220th St SW & 76th Ave W,,47.79958330671767,-122.33525609475547,,,0,,0,
2913,,Airport Rd & Kasch Park Rd,,47.91795782164798,-122.27178286871681,,,0,,0,
2914,,NE 10th St & 108th Ave NE,,47.619250758567624,-122.19690153768894,,,0,,0,
2915,,Edmonds Station &,,47.81179279480577,-122.38332963077556,,,0,,0,
2916,,Edmonds Station - Bay 1,,47.81231264946923,-122.38260431415385,,,0,,0,
2917,,Edmonds Station - Bay 2,,47.81201626294072,-122.38302694399145,,,0,,0,
2918,,Edmonds Station - Bay 3,,47.81179279480577,-122.38332963077556,,,0,,0,
292,,220th St SW & 80th Ave W,,47.7995739371144,-122.34075388943538,,,0,,0,
2923,,Marine Dr & Lakewood Rd,,48.16763338406661,-122.35747137245885,,,0,,0,
2925,,Olympic View Dr & 180th St SW,,47.83666227690025,-122.3250623389773,,,0,,0,
2926,,Olympic View Dr & 70th Pl W,,47.833732529185596,-122.32810143764753,,,0,,0,
2927,,Olympic View Dr & 73rd Ave W,,47.83050959994236,-122.33320846556826,,,0,,0,
2928,,Olympic View Dr & 73rd Ave W,,47.830788336362325,-122.33348936331133,,,0,,0,
2929,,Olympic View Dr & 70th Pl W,,47.83381363915812,-122.32818929617075,,,0,,0,
293,,220th St SW & 84th Ave W,,47.79954511634256,-122.34625112219982,,,0,,0,
2930,,Olympic View Dr & 180th St SW,,47.83687897057038,-122.32505636081352,,,0,,0,
2931,,76th Ave W & Olympic View Dr,,47.83145921919374,-122.33710447713672,,,0,,0,
2932,,76th Ave W & 75th Pl W,,47.8262580752861,-122.33624098624038,,,0,,0,
2933,,76th Ave W & 196th St SW,,47.82180548935077,-122.33579428849927,,,0,,0,
2934,,76th Ave W & 75th Pl W,,47.82617131802119,-122.33595752170953,,,0,,0,
2935,,76th Ave W & Olympic View Dr,,47.83099403637179,-122.33765699712669,,,0,,0,
2936,,276th St NW & 73rd Ave NW,,48.246564157510335,-122.33229614730845,,,0,,0,
2937,,Seattle Hill Rd & 32nd Ave SE,,47.85868507626422,-122.19111394305541,,,0,,0,
2938,,Seattle Hill Rd & 32nd Ave SE,,47.858993324763915,-122.19032349145513,,,0,,0,
2939,,276th St NW & 74th Ave NW,,48.24672740525299,-122.33344621022346,,,0,,0,
294,,220th St SW & 88th Ave W,,47.79950476014352,-122.35156488511473,,,0,,0,
2940,,Trillium Blvd SE & 142nd Pl SE,,47.86936084836135,-122.21114939529606,,,0,,0,
2941,,Trillium Blvd SE & 14th Dr SE,,47.870921056174005,-122.21273538243324,,,0,,0,
2942,,Trillium Blvd SE & Hwy 527,,47.870865034807146,-122.21691902561933,,,0,,0,
2943,,Trillium Blvd SE & 14th Dr SE,,47.87081580590669,-122.21305043623474,,,0,,0,
2944,,Trillium Blvd SE & 142nd Pl SE,,47.86911464850003,-122.21110209392981,,,0,,0,
2945,,Trillium Blvd SE & 144th Pl SE,,47.86751045913862,-122.2097513836148,,,0,,0,
2946,,88th St NE & 67th Ave NE,,48.074503903885706,-122.14053059005757,,,0,,0,
2947,,88th St NE & 61st Dr NE,,48.074730536296784,-122.14709853932283,,,0,,0,
2948,,88th St NE & 57th Dr NE,,48.074966084005375,-122.15333539877295,,,0,,0,
2949,,88th St NE & State Ave,,48.07550161692767,-122.17478714993332,,,0,,0,
295,,220th St SW & 92nd Ave W,,47.79951462841874,-122.35597259287896,,,0,,0,
2950,,88th St NE & 51st Ave NE,,48.07532107981725,-122.16178055917925,,,0,,0,
2951,,Beech Rd & 184th St SW,,47.83078631526737,-122.2652541482022,,,0,,0,
2952,,184th St SW & Alderwood Mall Pkwy,,47.83185670908084,-122.2669207102776,,,0,,0,
2953,,Tjerne Pl SE & Chain Lake Rd,,47.862530055705776,-121.97393869763894,,,0,,0,
2954,,Stanwood Station &,,48.24248218039114,-122.35005714565014,,,0,,0,
2955,,76th Pl NW & Marine Dr,,48.06582090097542,-122.27669201568855,,,0,,0,
2956,,Totem Beach Rd & 76th Pl NW,,48.065176558171174,-122.27865379575304,,,0,,0,
2957,,Totem Beach Rd & 76th Pl NW,,48.06505664032218,-122.27881405584212,,,0,,0,
2958,,Hwy 527 & 240th St SE (farside),,47.7795336390729,-122.21907125337654,,,0,,0,
2959,,276th St NW & Cedarhome Rd,,48.246740679434346,-122.34145961530199,,,0,,0,
296,,220th St SW & 95th Ave W,,47.79950757602384,-122.3595821585631,,,0,,0,
2960,,72nd Ave NW & Tyler Pl NW,,48.245532600646925,-122.330447578962,,,0,,0,
2961,,72nd Ave NW & 272nd St NW,,48.24282671692293,-122.33042622811058,,,0,,0,
2962,,72nd Ave NW & Tyler Pl NW,,48.245359911003334,-122.33023319811701,,,0,,0,
2963,,72nd Ave NW & 272nd St NW,,48.24324629961786,-122.33020858399699,,,0,,0,
2964,,Marine Dr & Warm Beach Senior Ctr,,48.1820006415261,-122.35084100801073,,,0,,0,
2965,,Marine Dr & Warm Beach Senior Ctr,,48.181874694959674,-122.35124318102987,,,0,,0,
297,,220th St SW & 58th Ave W,,47.79940380762686,-122.3116065263226,,,0,,0,
298,,220th St SW & 70th Ave W,,47.79949953263554,-122.32826613932194,,,0,,0,
299,,220th St SW & 77th Pl W,,47.79957392719636,-122.33805165584066,,,0,,0,
300,,220th St SW & 82nd Pl W,,47.79955517175429,-122.34404160494023,,,0,,0,
301,,223rd St SE & 23rd Dr SE,,47.79592210973478,-122.20155588473912,,,0,,0,
303,,228th St SE & 15th Ave SE,,47.79124667516407,-122.21276424895895,,,0,,0,
304,,228th St SW & 32nd Ave W,,47.79177000174783,-122.2762492705546,,,0,,0,
305,,228th St SW & 35th Ave W,,47.7917020140267,-122.2798890875959,,,0,,0,
306,,228th St SW & 66th Ave W,,47.79211818098756,-122.32175447298292,,,0,,0,
307,,228th St SW & 76th Ave W,,47.79229992742781,-122.33509802393073,,,0,,0,
308,,228th St SE & Hwy 527,,47.79120937023384,-122.21607529891281,,,0,,0,
309,,228th St SW & 38th Pl W,,47.79168541742074,-122.28335943960558,,,0,,0,
31,,Puget Park Dr & 134th Pl SE,,47.87551299140057,-122.15260230179975,,,0,,0,
310,,228th St SW & 39th Pl W,,47.791733722137934,-122.28689264600618,,,0,,0,
311,,228th St SW & 72nd Pl W,,47.79222713922015,-122.33082748729638,,,0,,0,
312,,228th St SW & 42nd Pl W,,47.791764306330144,-122.2898719847906,,,0,,0,
313,,230th St SW & 60th Ave W,,47.79020890405524,-122.31359447738267,,,0,,0,
318,,236th St SW & 48th Ave W,,47.7845790904454,-122.29726182426073,,,0,,0,
319,,236th St SW & 52nd Ave W,,47.78464153941619,-122.30264610217797,,,0,,0,
32,,134th Pl SE & 54th Ave SE,,47.877378962136675,-122.15792771181277,,,0,,0,
320,,236th St SW & 54th Ave W,,47.78466363304012,-122.30540105008825,,,0,,0,
322,,236th St SW & 58th Ave W,,47.78471515539286,-122.31075249870635,,,0,,0,
324,,236th St SW & 50th Ave W,,47.784604805294826,-122.30059864850008,,,0,,0,
325,,Mountlake Terrace TC - Bay 4,,47.78484767589648,-122.31512578490971,,,0,,0,
326,,238th St SW & Edmonds Wy,,47.78314144325294,-122.35046338847653,,,0,,0,
327,,238th St SW & 84th Ave W,,47.78315701458979,-122.34701795149826,,,0,,0,
328,,238th St SW & Hwy 99,,47.783173336795315,-122.34392241512066,,,0,,0,
332,,Stanwood II Park & Ride &,,48.239135353981546,-122.3497777943194,,,0,,0,
333,,271st St NW & 94th Dr NW,,48.24205377202746,-122.3606920281477,,,0,,0,
334,,271st St NW & 90th Ave NW,,48.242074231948344,-122.35334115890376,,,0,,0,
335,,271st St NW & 92nd Ave NW,,48.242061858387345,-122.35801191313126,,,0,,0,
336,,271st St NW & 96th Ave NW,,48.24204923601784,-122.36330657494764,,,0,,0,
340,,276th St NW & 78th Ave NW,,48.246621927481236,-122.3390095369252,,,0,,0,
342,,64th St NE & 47th Ave NE,,48.05171188436215,-122.1674252511579,,,0,,0,
343,,4th St & Columbia Ave,,48.05177871339764,-122.17509860955941,,,0,,0,
344,,4th St & Quinn Ave,,48.0517366757236,-122.17165428038228,,,0,,0,
348,,NE 45th St & 7th Ave NE,,47.66125564170209,-122.32099883382966,,,0,,0,
349,,NE 45th St & Roosevelt Wy,,47.66122521577905,-122.31723547585207,,,0,,0,
350,,NE 45th St & University Wy NE,,47.66120299391091,-122.31346424188399,,,0,,0,
355,,Bellevue Transit Center - Bay 4,,47.61557124909218,-122.19505736079905,,,0,,0,
356,,64th St NE & 65th Dr NE,,48.05361259848235,-122.14284751925895,,,0,,0,
357,,64th St NE & 56th Dr NE,,48.05382128695812,-122.15501906881286,,,0,,0,
358,,64th St NE & 54th Ave NE,,48.053859148497544,-122.15649226088223,,,0,,0,
359,,64th St NE & 60th Dr NE,,48.053742814545416,-122.14920179899826,,,0,,0,
36,,Pioneer Hwy & 77th Ave NW,,48.23413072354404,-122.33750275641263,,,0,,0,
369,,92nd St SE & 113th Dr SE,,47.91319961513815,-122.07844014766223,,,0,,0,
37,,N 200th St & Burke Ave N,,47.77410759818357,-122.3369142634094,,,0,,0,
370,,Alderwood Mall Blvd & 28th Ave W,,47.826325456478436,-122.27069276202344,,,0,,0,
371,,Alderwood Mall Blvd & 33rd Ave W,,47.82270591187724,-122.27744856965973,,,0,,0,
372,,Beardslee Blvd & 108th Ave NE,,47.762194966567264,-122.19597364783046,,,0,,0,
374,,Beardslee Blvd & Sunrise Dr,,47.76058598760326,-122.20028653952751,,,0,,0,
375,,Beardslee Blvd & 110th Ave NE,,47.76340655253929,-122.19416327697549,,,0,,0,
38,,Meridian Ave N & N 203rd St,,47.7760880792294,-122.3351899860821,,,0,,0,
384,,E Burke Ave & N Manhattan St,,48.20018315321815,-122.12150021993641,,,0,,0,
39,,Meridian Ave N & N 205th St,,47.777379291233196,-122.33541856504641,,,0,,0,
399,,Caspers St & 7th Ave N,,47.81770361382275,-122.37183866070853,,,0,,0,
40,,Meridian Ave N & N 203rd St,,47.77563846938142,-122.33539255813525,,,0,,0,
400,,Caspers St & 9th Ave N,,47.81769388998124,-122.36807669125106,,,0,,0,
401,,Chennault Beach Rd & Harbour Pointe Blvd,,47.897754184535394,-122.30380291860405,,,0,,0,
402,,Chennault Beach Rd & Harbour Reach Dr,,47.89511723501705,-122.29989551149951,,,0,,0,
406,,Dayton St & 5th Ave S,,47.80962581487951,-122.37731381802743,,,0,,0,
408,,W Dayton St & Edmonds Wy,,47.809630878215266,-122.38382263625618,,,0,,0,
41,,N 200th St & Burke Ave N,,47.77424447521196,-122.33672298448552,,,0,,0,
419,,Cedar and Grove P&R - Bay 3,,48.06119299609703,-122.17987124257685,,,0,,0,
426,,Hewitt Ave & Lombard Ave,,47.97916661316267,-122.2029661195953,,,0,,0,
427,,Hewitt Ave & Virginia Ave,,47.97907669879989,-122.19694038461137,,,0,,0,
430,,Howell St & 9th Ave,,47.614752123475284,-122.33326207708403,,,0,,0,
431,,Howell St & Yale Ave,,47.61787385364111,-122.32920339341442,,,0,,0,
432,,Harbour Pointe Blvd SW & 52nd Pl W,,47.88605875074425,-122.30409840840414,,,0,,0,
433,,Harbour Pointe Blvd SW & Village Center Pl,,47.88641907270666,-122.29802663346217,,,0,,0,
435,,Harbour Pointe Blvd SW & Harbour Reach Dr,,47.887060461036405,-122.29418437452551,,,0,,0,
436,,Larch Wy & Cypress Wy,,47.808060628720845,-122.25894028535086,,,0,,0,
439,,Lewis Ave & 3rd St,,47.85764119329183,-121.69896634764415,,,0,,0,
440,,Lewis Ave & 7th St,,47.85536850568717,-121.69459417144074,,,0,,0,
441,,Lake View Dr & Cedar Rd,,48.01525506235539,-122.08388437730773,,,0,,0,
442,,Lakewood Rd & 52nd Ave NW,,48.155698381856844,-122.29751202625002,,,0,,0,
443,,Lakewood Rd & 176th Pl NW,,48.15635479862507,-122.24456719503097,,,0,,0,
444,,Lakewood Rd & 184th St NW,,48.16309175557561,-122.33567292588589,,,0,,0,
445,,Lakewood Rd & 188th St NW,,48.166789670345594,-122.34786369948883,,,0,,0,
446,,Lakewood Rd & Freestad Rd,,48.15551917993947,-122.27480154812469,,,0,,0,
447,,Lakewood Rd & 65th Dr NW,,48.16078996759127,-122.32588079704233,,,0,,0,
448,,Lakewood Rd & 172nd St NW,,48.15223022319845,-122.23904558252485,,,0,,0,
449,,Lakewood Rd & 60th Ave NW,,48.15898541303898,-122.31467368314331,,,0,,0,
450,,Lakewood Rd & E Lake Goodwin Rd,,48.155595186376125,-122.28705991333165,,,0,,0,
451,,Lakewood Rd & 53rd Dr NW,,48.15581635432467,-122.30630914046262,,,0,,0,
452,,Lakewood Rd & 26th Ave NW,,48.156561745108135,-122.26156215892549,,,0,,0,
453,,Logan Rd & Locust Wy,,47.80839991420702,-122.25371529075937,,,0,,0,
455,,Lundeen Pkwy & Vernon Rd,,48.01780862412995,-122.09081578896468,,,0,,0,
456,,Lundeen Pkwy & 101st Ave NE,,48.017804110094154,-122.0947224628185,,,0,,0,
457,,Main St & 7th Ave N,,47.81046086261424,-122.37273493340246,,,0,,0,
459,,Main St & 8th Ave S,,47.81046208291333,-122.36918140896411,,,0,,0,
460,,Main St & 9th Ave S,,47.810454184673674,-122.36629925227918,,,0,,0,
461,,Main St & Hillcrest Pl,,47.810441443519665,-122.3541240000685,,,0,,0,
462,,W Main St & S Kelsey St,,47.85375389837959,-121.97693909090812,,,0,,0,
463,,W Main St & S Madison St,,47.85489764366272,-121.9733265821576,,,0,,0,
465,,E Main St & Woods St,,47.85648918271342,-121.96823274431068,,,0,,0,
466,,Main St & 12th Ave N,,47.81042311459896,-122.35919937348163,,,0,,0,
467,,Main St & Olympic Ave,,47.810441209355126,-122.36133284990571,,,0,,0,
468,,Main St & 86th Pl W,,47.81043085097848,-122.35059050027519,,,0,,0,
469,,Market Pl & 91st Ave NE,,47.997870524322124,-122.10794495888756,,,0,,0,
470,,Monte Villa Pkwy & 35th Ave SE,,47.778083628876594,-122.18124667177297,,,0,,0,
473,,Olive Wy & 6th Ave,,47.61303433517823,-122.33647686127745,,,0,,0,
476,,Olive Wy & Terry Ave,,47.61493210523485,-122.33188039378369,,,0,,0,
477,,Pioneer Hwy & 77th Ave NW,,48.234053936608845,-122.33771391848312,,,0,,0,
478,,Puget Dr & Olympic View Dr,,47.82141896521725,-122.3634723634499,,,0,,0,
479,,Seattle Hill Rd & 25th Ave SE,,47.85269087440037,-122.19943815866273,,,0,,0,
481,,Seattle Hill Rd & 35th Ave SE,,47.86019233261574,-122.1865536418611,,,0,,0,
482,,Seattle Hill Rd & 27th Ave SE,,47.85626210118246,-122.19358033346293,,,0,,0,
483,,Seeman St & Railroad Ave,,48.25520861219521,-121.60331319046666,,,0,,0,
486,,Smokey Point Dr & Smokey Point Blvd,,48.15470285498747,-122.18394754883121,,,0,,0,
487,,Edmonds Wy & 100th Ave W,,47.79043728133946,-122.36631782261608,,,0,,0,
488,,Edmonds Wy & 102nd Pl W,,47.79211440905909,-122.36965521758471,,,0,,0,
489,,Edmonds Wy & 232nd Pl SW,,47.788323482240365,-122.35461052028283,,,0,,0,
490,,N 205th St & Meridian Ave N,,47.777677000075634,-122.33488208746638,,,0,,0,
491,,Edmonds Wy & 238th St SW,,47.78409078709422,-122.35289153257094,,,0,,0,
492,,NE 205th St & 6th Ave NE,,47.77758338487675,-122.3231923219859,,,0,,0,
493,,Edmonds Wy & 95th Pl W,,47.79174641922846,-122.36029365843598,,,0,,0,
497,,Hwy 520 & Evergreen Point Fwy Stn,,47.63693281277707,-122.23755161567497,,,0,,0,
498,,Hwy 520 & Montlake Fwy Station,,47.64406842736948,-122.3043544918742,,,0,,0,
499,,Hwy 530 & Ramstad Rd (nearside),,48.26839545700742,-121.96092650648801,,,0,,0,
500,,Hwy 530 & E Post Rd,,48.277056731400464,-121.81361592201846,,,0,,0,
501,,Hwy 530 & 379th Ave NE,,48.268677069647225,-121.71934374467237,,,0,,0,
502,,Hwy 530 & French Creek Rd,,48.27841268974438,-121.7634531299636,,,0,,0,
504,,Hwy 530 & 103rd Ave NE,,48.22604169478481,-122.0925930361019,,,0,,0,
505,,Hwy 530 & 114th Ave NE,,48.232278225483725,-122.07447642283256,,,0,,0,
506,,Hwy 530 & 119th Ave NE,,48.2340301343855,-122.06912227115369,,,0,,0,
507,,Hwy 530 & 171st Ave NE (nearside),,48.27055608931901,-122.00380172252945,,,0,,0,
508,,Hwy 530 & 179th Ave NE,,48.27358568707932,-121.98445763826213,,,0,,0,
509,,Hwy 530 & 221st Ave NE,,48.27065080307874,-121.93149483625133,,,0,,0,
510,,Hwy 530 & 304th St NE,,48.27352651126502,-121.91469380258843,,,0,,0,
511,,Hwy 530 & 387th Ave NE,,48.268648195711414,-121.7058788086221,,,0,,0,
513,,Hwy 530 & Jim Creek Rd,,48.23633562230399,-122.0614540776221,,,0,,0,
514,,Hwy 530 & Lake Cavanaugh Rd,,48.27019191733237,-121.9341912355829,,,0,,0,
515,,Hwy 530 & Oso Loop Rd,,48.27211266668578,-121.89989644788092,,,0,,0,
516,,Hwy 530 & Ramstad Rd (farside),,48.26877270920317,-121.95457390520629,,,0,,0,
517,,Hwy 530 & Tom Creek Rd,,48.269066093538754,-121.72718938698421,,,0,,0,
518,,Hwy 530 & Arlington Heights Rd,,48.204845647531286,-122.11742937647439,,,0,,0,
519,,Hwy 530 & 294th St NE,,48.2647582077248,-122.02009840942614,,,0,,0,
520,,Hwy 530 & Boulder Creek Dr,,48.27871647636823,-121.77264622081687,,,0,,0,
521,,Hwy 530 & 139th Ave NE,,48.2474242501291,-122.04187226771626,,,0,,0,
522,,Hwy 530 & 310th St NE,,48.27677628464876,-121.79778640301048,,,0,,0,
523,,Hwy 530 & 411th Ave NE,,48.26913147012864,-121.67592753109736,,,0,,0,
524,,Hwy 530 & Hillis Rd,,48.26861823087967,-122.00914526097357,,,0,,0,
525,,Hwy 530 & Squire Creek Rd,,48.27076363618504,-121.66976594226244,,,0,,0,
526,,Hwy 530 & Powerline Rd,,48.26312364187966,-121.63381037603652,,,0,,0,
527,,Hwy 530 & 171st Ave NE(Cicero Pk),,48.27322694860104,-121.99941898340741,,,0,,0,
528,,Hwy 530 & Whitman Rd,,48.2715920816167,-121.88914271865647,,,0,,0,
529,,Hwy 530 & 350th Dr NE,,48.277999441822885,-121.75722758708693,,,0,,0,
531,,Stanwood I P&R - Bay 1,,48.23881362537517,-122.24322335797957,,,0,,0,
532,,Hwy 92 & 127th Dr NE,,48.032026340839586,-122.05873442700852,,,0,,0,
533,,Hwy 92 & 147th Ave NE,,48.051628426389925,-122.03264452259441,,,0,,0,
534,,Hwy 92 & 44th St NE,,48.03620124964935,-122.04952922862846,,,0,,0,
536,,Hwy 92 & 64th St NE,,48.05751646351446,-122.02644239542235,,,0,,0,
537,,Hwy 92 & Crooked Mile Rd,,48.079228665724244,-122.00104214415352,,,0,,0,
538,,Hwy 92 & 161st Ave NE,,48.06739153215922,-122.01536479270683,,,0,,0,
539,,Hwy 92 & 44th St NE (farside),,48.039642665256814,-122.04559154977744,,,0,,0,
540,,Hwy 92 & 75th St NE,,48.06295378192172,-122.02031029138939,,,0,,0,
541,,Hwy 92 & 84th St NE,,48.071510233135164,-122.00996118035408,,,0,,0,
543,,W Stanley St & Portage Ave,,48.08321607234432,-121.9744873590006,,,0,,0,
544,,W Stanley St & Cascade Ave,,48.083257512302126,-121.97086304624305,,,0,,0,
545,,Stevens Wy & Memorial Wy,,47.6597007959503,-122.30857138309196,,,0,,0,
546,,Terrace St & 5th Ave,,47.60206640623262,-122.32835172644123,,,0,,0,
548,,Sultan P&R - Bay 2,,47.86301996373755,-121.80416459313038,,,0,,0,
549,,Hwy 2 & 179th Ave SE,,47.865487210014415,-121.99043214841053,,,0,,0,
550,,Hwy 2 & 339th Ave SE,,47.86790275838511,-121.77732347552332,,,0,,0,
551,,Hwy 2 & 363rd Ave SE,,47.86712201306931,-121.74514551066915,,,0,,0,
552,,Hwy 2 & Fryelands Blvd SE,,47.87215320166939,-122.00730500857847,,,0,,0,
553,,Hwy 2 & N Kelsey St,,47.86070155389264,-121.97693362876463,,,0,,0,
554,,Hwy 2 & Main St,,47.857689241848114,-121.96361077277642,,,0,,0,
555,,Hwy 2 & Sofie Rd,,47.854703202398845,-121.90703258770189,,,0,,0,
556,,Hwy 2 & Woods Creek Rd SE,,47.85817793832296,-121.96576023256465,,,0,,0,
557,,Hwy 2 & N Lewis St,,47.859246168565214,-121.97056237011914,,,0,,0,
558,,Hwy 2 & Maple St,,47.85918909512402,-121.82628311779541,,,0,,0,
560,,Hwy 2 & 368th Dr SE,,47.86711496904487,-121.73774620386361,,,0,,0,
563,,Hwy 2 & Roosevelt Rd (West),,47.900712500335025,-122.03675898565305,,,0,,0,
564,,Hwy 2 & Westwick Rd,,47.90562244697539,-122.04357283003142,,,0,,0,
566,,Walnut St & 10th Ave S,,47.8071952564226,-122.3639520253961,,,0,,0,
567,,Yesler Wy & 2nd Ave S,,47.60169533422785,-122.33113031974595,,,0,,0,
570,,1st St & Hwy 2,,47.85764608800252,-121.70193613482427,,,0,,0,
575,,100th Ave W & 237th Pl SW,,47.78439147269735,-122.36629370761753,,,0,,0,
576,,100th Ave W & 232nd St SW,,47.78848549253401,-122.36668734494013,,,0,,0,
581,,Main St & 18th St NE,,48.01411262420154,-122.06403413499014,,,0,,0,
584,,15th Ave NE & NE 42nd St,,47.658982427026565,-122.31195209909039,,,0,,0,
585,,179th Ave SE & 147th St SE,,47.86453467492999,-121.99054531904031,,,0,,0,
586,,179th Ave SE & 157th Pl SE,,47.85462086046656,-121.99050712270267,,,0,,0,
587,,179th Ave SE & W Main St,,47.85102693602229,-121.99045534338504,,,0,,0,
588,,179th Ave SE & 154th St SE,,47.85746113512846,-121.99052577347074,,,0,,0,
589,,179th Ave SE & Stanton St,,47.86007630582756,-121.99057198865732,,,0,,0,
595,,209th St NE & Keith Ln,,48.18257392253561,-122.12241642372162,,,0,,0,
597,,23rd Ave SE & 171st Pl SE,,47.842858694973444,-122.2017122063436,,,0,,0,
603,,29th Ave W & 232nd St SW,,47.78863094861544,-122.27186537385153,,,0,,0,
604,,29th Ave W & 228th St SW,,47.79040767171995,-122.27186990626026,,,0,,0,
605,,3rd Ave N & 4th Ave N,,47.815396796556435,-122.37616676296778,,,0,,0,
606,,3rd Ave N & Bell St,,47.81259290341316,-122.37851350258485,,,0,,0,
607,,3rd Ave N & Giltner Ln,,47.817220914174456,-122.3746944212619,,,0,,0,
608,,3rd Ave N & Daley St,,47.81365779288187,-122.37762932532834,,,0,,0,
609,,3rd Ave S & James St,,47.81043076381144,-122.38024007770856,,,0,,0,
610,,33rd Ave W & 188th St SW,,47.829925382259084,-122.27767014260685,,,0,,0,
611,,35th Ave W & 156th St SW,,47.85892964156523,-122.28026768351862,,,0,,0,
612,,35th Ave SE & 156th St SE,,47.856500880503795,-122.1868605062287,,,0,,0,
613,,35th Ave W & 158th St SW,,47.85560769474703,-122.28016672286016,,,0,,0,
614,,35th Ave W & 148th St SW,,47.863364830847445,-122.28036717052163,,,0,,0,
615,,35th Ave SE & 164th St SE,,47.84861398818797,-122.1865036950534,,,0,,0,
616,,36th Ave W & 166th Pl SW,,47.84779740472263,-122.28178156828278,,,0,,0,
617,,36th Ave W & 172nd St SW,,47.84302165939509,-122.28172541715489,,,0,,0,
619,,36th Ave W & 184th St SW (farside),,47.83229221572635,-122.2815272814736,,,0,,0,
623,,36th Ave W & 176th Pl SW,,47.8389095360102,-122.28166339353366,,,0,,0,
624,,39th Ave SE & NE 204th Pl,,47.77645239036951,-122.1800694040366,,,0,,0,
629,,4th Ave W & 213th Pl SW,,47.80503339664565,-122.23837289707409,,,0,,0,
630,,4th Ave W & 216th St SW,,47.80255552739933,-122.23830574130189,,,0,,0,
634,,4th Ave & Union St,,47.609819759559706,-122.33613260385289,,,0,,0,
635,,4th Ave S & S Washington St,,47.60133237832917,-122.32891443328748,,,0,,0,
638,,4th Ave W & 219th Pl SW,,47.79913584076792,-122.23834736401406,,,0,,0,
639,,4th St & Alder St,,47.862852337678866,-121.81640426867165,,,0,,0,
640,,4th Ave S & S Jackson St,,47.5988294974747,-122.32887088812707,,,0,,0,
641,,4th Ave & Seneca St,,47.60737479544219,-122.33398604229772,,,0,,0,
645,,44th Ave W & 172nd St SW,,47.84294297506126,-122.29243923268872,,,0,,0,
646,,44th Ave W & 174th Pl SW,,47.84085906508055,-122.29244162906325,,,0,,0,
647,,44th Ave W & 179th St SW,,47.83682586293614,-122.29242577763249,,,0,,0,
648,,44th Ave W & 184th St SW,,47.832148532941034,-122.29239178945902,,,0,,0,
649,,44th Ave W & 188th St SW,,47.828464053799415,-122.2923369019087,,,0,,0,
650,,44th Ave W & 192nd St SW,,47.82457591048415,-122.29234143286519,,,0,,0,
651,,44th Ave W & 214th St SW,,47.80505698585517,-122.292260126534,,,0,,0,
652,,44th Ave W & 217th St SW,,47.80227691461558,-122.2922388675163,,,0,,0,
653,,44th Ave W & 220th St SW,,47.799655767108405,-122.29222615241908,,,0,,0,
654,,44th Ave W & 226th St SW,,47.793975226721024,-122.29216398076758,,,0,,0,
655,,44th Ave W & 228th St SW,,47.7924344884357,-122.29214504691431,,,0,,0,
656,,44th Ave W & Maple Rd,,47.83419644822154,-122.2924168838645,,,0,,0,
657,,44th Ave W & 168th St SW,,47.84569019699143,-122.29245552087592,,,0,,0,
658,,44th Ave W & 176th St SW,,47.83891241069221,-122.2924316004191,,,0,,0,
659,,44th Ave W & 223rd St SW,,47.79721578301606,-122.29219818924098,,,0,,0,
660,,44th Ave W & 224th St SW,,47.79590533872324,-122.29218166360462,,,0,,0,
661,,44th Ave W & 229th Pl SW,,47.79035341454046,-122.29213939509866,,,0,,0,
662,,44th Ave W & 209th St SW,,47.81058780730711,-122.29223669903942,,,0,,0,
665,,47th Ave W & Chennault Beach Rd,,47.896142495499944,-122.29734371288852,,,0,,0,
666,,47th Pl W & Harbour Pointe Blvd,,47.9043262772098,-122.29655582364936,,,0,,0,
667,,47th Ave W & 109th St SW,,47.89878710388783,-122.29573457549893,,,0,,0,
675,,48th Ave W & 233rd St SW,,47.78746546558114,-122.29754673888635,,,0,,0,
681,,5th Ave S & Elm Wy,,47.800945112822404,-122.37747854548932,,,0,,0,
682,,5th Ave S & Holly Dr,,47.80677470940603,-122.37747311066346,,,0,,0,
683,,5th Ave S & Pine St,,47.80344592390478,-122.37747163688269,,,0,,0,
685,,5th Ave & James St,,47.60348654552205,-122.32878578942157,,,0,,0,
688,,51st Ave NE & 119th Pl NE,,48.10290509423689,-122.16210265630973,,,0,,0,
689,,51st Ave NE & 123rd Pl NE,,48.1066007002907,-122.16212834687992,,,0,,0,
690,,51st Ave NE & 126th Pl NE,,48.10982462426145,-122.16216234838726,,,0,,0,
691,,51st Ave NE & 128th Pl NE,,48.111502462976944,-122.16217286133626,,,0,,0,
692,,51st Ave NE & 130th Pl NE,,48.113966810814574,-122.16221594046735,,,0,,0,
693,,51st Ave NE & 134th Pl NE,,48.11747479478269,-122.16234326445027,,,0,,0,
694,,51st Ave NE & 139th St NE,,48.12124307131824,-122.16248551042884,,,0,,0,
695,,51st Ave NE & 139th Pl NE,,48.12272024976382,-122.16253999927713,,,0,,0,
696,,51st Ave NE & 110th Pl NE,,48.09470051715962,-122.16220630949347,,,0,,0,
697,,51st Ave NE & 117th Pl NE,,48.10105688801741,-122.16212459471066,,,0,,0,
698,,51st Ave NE & 142nd Pl NE,,48.12482056833503,-122.16252866641402,,,0,,0,
699,,51st Ave NE & 146th St NE,,48.128481290325084,-122.1622504365307,,,0,,0,
7,,Marine Dr NE & 23rd Ave NE,,48.0548617881012,-122.20077569746623,,,0,,0,
702,,52nd Ave W & 157th St SW,,47.85660072655057,-122.30355920483638,,,0,,0,
703,,52nd Ave W & 160th St SW,,47.85390811856746,-122.30356016998229,,,0,,0,
704,,52nd Ave W & 164th St SW,,47.85039849695643,-122.30355423741676,,,0,,0,
705,,52nd Ave W & 168th St SW,,47.84685935215157,-122.30349858802228,,,0,,0,
709,,52nd Ave W & 208th St SW,,47.81035818898614,-122.30309015007573,,,0,,0,
710,,52nd Ave W & 212th St SW,,47.806766167979944,-122.3030941288863,,,0,,0,
711,,52nd Ave W & 216th St SW,,47.80270580775075,-122.30305634037963,,,0,,0,
714,,52nd Ave W & 220th St SW,,47.7994814401526,-122.30304225638133,,,0,,0,
718,,56th Ave W & 224th St SW,,47.79578455118875,-122.30841473667871,,,0,,0,
719,,56th Ave W & 228th St SW,,47.792165273876776,-122.30840536324901,,,0,,0,
720,,56th Ave W & 232nd St SW,,47.78881513530261,-122.30836295946428,,,0,,0,
725,,56th Ave W & 222nd Pl SW,,47.79714169453452,-122.30842486240746,,,0,,0,
726,,56th Ave W & 235th St SW,,47.785859536911985,-122.30834398848893,,,0,,0,
733,,6th Ave S & Dayton St,,47.80993649834825,-122.37481565651328,,,0,,0,
739,,66th Ave W & 222nd St SW,,47.797836177589595,-122.32189014094479,,,0,,0,
740,,66th Ave W & 224th St SW,,47.79607585054393,-122.3218884339824,,,0,,0,
741,,66th Ave W & 228th St SW,,47.792533268114326,-122.32188439090864,,,0,,0,
742,,66th Ave W & 226th St SW,,47.79430450642586,-122.32189048005114,,,0,,0,
749,,67th Ave NE & 72nd St NE,,48.06052944067475,-122.1407408800941,,,0,,0,
755,,68th Ave W & 204th St SW,,47.814256672637875,-122.32471464120478,,,0,,0,
759,,I-5 & NE 45th St Fwy Station,,47.661631275500085,-122.32079040803794,,,0,,0,
760,,72nd Ave NW & 265th St NW,,48.23806791994453,-122.33013987327347,,,0,,0,
761,,72nd Ave NW & 268th St NW,,48.240244411423994,-122.33017862665733,,,0,,0,
762,,72nd Ave NW & 261st St NW,,48.23354790669641,-122.33004520142659,,,0,,0,
763,,Edmonds P&R - Bay 2,,47.80565250217584,-122.33015302077565,,,0,,0,
764,,76th Ave W & 216th St SW,,47.80330272228624,-122.33557548900541,,,0,,0,
766,,76th Ave W & 198th St SW,,47.81926915979339,-122.33579403817993,,,0,,0,
767,,76th Ave W & 204th St SW,,47.814479457876786,-122.33575289064295,,,0,,0,
768,,76th Ave W & 212th St SW,,47.807381669123835,-122.33566113644682,,,0,,0,
769,,76th Ave W & 219th St SW,,47.80070356127151,-122.33555715009487,,,0,,0,
770,,76th Ave W & 230th St SW,,47.790711061225316,-122.33540193536967,,,0,,0,
771,,76th Ave W & 236th St SW,,47.78528560969287,-122.33533022776848,,,0,,0,
772,,76th Ave W & 244th St SW,,47.77849495094134,-122.33523527337718,,,0,,0,
773,,76th Ave W & 200th St SW,,47.81795334952564,-122.33576810536138,,,0,,0,
774,,76th Ave W & 206th St SW,,47.8126455027101,-122.33572008350905,,,0,,0,
775,,76th Ave W & 234th St SW,,47.78722662625463,-122.33535389875425,,,0,,0,
777,,8th St & Fir Ave,,47.86757025134118,-121.80974235769439,,,0,,0,
778,,8th St & Alder Ave,,47.863163708299034,-121.80982223790464,,,0,,0,
780,,84th Ave W & 214th Pl SW,,47.80538545201687,-122.34646634474558,,,0,,0,
781,,84th Ave W & 216th St SW,,47.80346647576739,-122.34643475272884,,,0,,0,
782,,84th Ave W & 218th St SW,,47.801659877480375,-122.34640644292973,,,0,,0,
783,,84th Ave W & 220th St SW,,47.800039500726804,-122.34639577894079,,,0,,0,
784,,84th Ave W & 224th St SW,,47.796209661277594,-122.34634098453498,,,0,,0,
785,,84th Ave W & 228th St SW,,47.792610113123594,-122.3462888487663,,,0,,0,
786,,84th Ave W & 230th St SW,,47.79071854426459,-122.34625807082463,,,0,,0,
787,,84th Ave W & 236th St SW,,47.78539768632069,-122.34615573047945,,,0,,0,
789,,84th Ave W & Holly Ln,,47.788369238782394,-122.34621394059631,,,0,,0,
791,,88th Ave NW & Hwy 532,,48.2401300352515,-122.3519045474505,,,0,,0,
794,,9th Ave N & Hindley Ln,,47.819995934173704,-122.36694384361927,,,0,,0,
797,,9th Ave S & Alder St,,47.807866297435105,-122.36686989832401,,,0,,0,
800,,91st Ave SE & 16th Pl SE,,47.981111574349356,-122.10878927442656,,,0,,0,
801,,91st Ave SE & 8th St SE,,47.98827702841272,-122.10868438251909,,,0,,0,
802,,96th Ave W & 220th St SW,,47.80003062774667,-122.36147775199194,,,0,,0,
803,,96th Ave W & 216th St SW,,47.803041031821984,-122.36150137300892,,,0,,0,
804,,96th Ave W & Walnut St,,47.80709944704656,-122.3614826287765,,,0,,0,
807,,Airport Rd & Admiralty Wy,,47.88479721156814,-122.25444215809834,,,0,,0,
808,,Airport Rd & E Gibson Rd,,47.8821527166148,-122.25101090341704,,,0,,0,
814,,Alderwood Mall Pkwy & 186th St SW,,47.82896474648545,-122.2683880061693,,,0,,0,
815,,Beardslee Blvd & NE 195th St,,47.76776892805201,-122.19093871085896,,,0,,0,
817,,Beverly Park Rd & 132nd St SW,,47.879027486747816,-122.28614839854384,,,0,,0,
818,,Beverly Park Rd & 134th Pl SW,,47.87662201150723,-122.28879933705247,,,0,,0,
819,,Beverly Park Rd & 49th Pl W,,47.86789065846735,-122.30025307830068,,,0,,0,
82,,Lakeview Dr & Ballinger Playfield,,47.79037855799668,-122.32877220438364,,,0,,0,
820,,Beverly Park Rd & 140th St SW,,47.871461854718774,-122.29459188109179,,,0,,0,
821,,Beverly Park Rd & Hwy 525,,47.882024768214045,-122.28071354782642,,,0,,0,
823,,Beverly Park Rd & 142nd Pl SW,,47.8695923281684,-122.29669891235335,,,0,,0,
824,,Beverly Park Rd & 47th Pl W,,47.87452704451104,-122.29117756913753,,,0,,0,
825,,Bickford Ave & 87th Ave SE,,47.94907418540411,-122.11415325360196,,,0,,0,
827,,Broadway & 13th St,,48.00049615664437,-122.2008354844656,,,0,,0,
83,,52nd Ave W & 204th St SW,,47.813971770133634,-122.30311527717791,,,0,,0,
834,,Broadway St & E Gilman Ave,,48.19957530106306,-122.12509803196293,,,0,,0,
836,,Broadway & Tower St,,48.00534465873439,-122.19776477659238,,,0,,0,
837,,Brook Blvd & 175th St SE,,47.83972805958582,-122.20166209510468,,,0,,0,
838,,Brook Blvd & 180th St SE,,47.835119593614,-122.20481042799439,,,0,,0,
839,,Brook Blvd & 177th St SE,,47.83698411090489,-122.20435073195365,,,0,,0,
840,,S Stillaguamish Ave & 207th St NE,,48.18459982702123,-122.11802292321522,,,0,,0,
842,,Cedar Wy & 236th St SW,,47.7854020922352,-122.29079991524317,,,0,,0,
844,,Cedar Wy & 232nd St SW,,47.7880493201766,-122.2915619239059,,,0,,0,
846,,Chennault Beach Rd & Harbour Reach Dr,,47.89506499620458,-122.30033435751807,,,0,,0,
85,,67th Ave NE & 69th Pl NE,,48.05821251745216,-122.14075168645391,,,0,,0,
855,,Cypress Wy & Larch Wy,,47.80818253873308,-122.2601565648106,,,0,,0,
856,,Cypress Wy & 205th St SW,,47.812016029285886,-122.25925667174634,,,0,,0,
857,,Ave D & 13th St,,47.928100190884194,-122.0987925260399,,,0,,0,
858,,Ave D & Third St,,47.91485970422726,-122.09832588331348,,,0,,0,
859,,Ave D & Fifth St,,47.91780374795327,-122.09813684295142,,,0,,0,
860,,Ave D & Tenth St,,47.923652781015804,-122.09781893041243,,,0,,0,
861,,Snohomish P&R - Bay 2,,47.9315871597963,-122.10033433801219,,,0,,0,
877,,Evergreen Wy & 79th Pl SE,,47.926078130692964,-122.22394825245212,,,0,,0,
880,,Firdale Ave & 240th Pl SW,,47.78158779189939,-122.36639390647188,,,0,,0,
881,,Firdale Ave & 243rd Pl SW,,47.77884394341461,-122.36346518175566,,,0,,0,
886,,Givens Ave & Fir St,,48.24856062461959,-121.6033203159908,,,0,,0,
887,,Grade Rd & Hwy 92,,48.03005264717236,-122.07172273383664,,,0,,0,
888,,Grade Rd & 24th Pl NE,,48.01902746293271,-122.06285991269354,,,0,,0,
889,,Grade Rd & 28th Pl NE,,48.024111979971586,-122.0640150462489,,,0,,0,
890,,Granite Falls P&R &,,48.080459114038845,-121.96911563228696,,,0,,0,
894,,Harbour Pointe Blvd & 47th Pl W,,47.9049280965257,-122.29602233116836,,,0,,0,
895,,Harbour Pointe Blvd SW & 52nd Pl W,,47.88606031884435,-122.30461615474613,,,0,,0,
896,,Harbour Pointe Blvd & N Grove Dr,,47.89385852123241,-122.31120207485233,,,0,,0,
897,,Harbour Pointe Blvd & Double Eagle Dr,,47.88790999504031,-122.3104492711046,,,0,,0,
898,,Harbour Pointe Blvd & Harbour Heights Pkwy,,47.89552644644707,-122.30816331160766,,,0,,0,
899,,Hubbard Rd & 210th St SW,,47.80892290796699,-122.2429271225274,,,0,,0,
9,,Marine Dr NE & Meridian Ave N,,48.03870595569888,-122.23247394251244,,,0,,0,
904,,I-5 & 116th St NE Flyer Stop,,48.10070569217707,-122.18377695710521,,,0,,0,
905,,I-5 & 4th St Flyer Stop,,48.052119174785815,-122.18347435518898,,,0,,0,
906,,Lakeview Dr & Ballinger Park,,47.78822888843865,-122.3268833532815,,,0,,0,
907,,Lakeview Dr & Ballinger Playfield,,47.79043604024906,-122.32857041713345,,,0,,0,
911,,Marine Dr & Florence Rd,,48.21863162377101,-122.3345302773706,,,0,,0,
912,,Marine Dr & Norman Rd,,48.21319443222113,-122.33580328371443,,,0,,0,
913,,Marine Dr & 226th St NW,,48.20261473911857,-122.33782391691612,,,0,,0,
914,,Marine Dr & 233rd St NW,,48.20998480562544,-122.33656275567085,,,0,,0,
915,,Marine Dr & Happy Hollow Rd,,48.18847718091047,-122.34017828948231,,,0,,0,
916,,Marine Dr & 201st St NW,,48.179086721367845,-122.35182919052956,,,0,,0,
917,,Marine Dr & Warm Beach Conf Ctr,,48.184459210233406,-122.34674373886412,,,0,,0,
926,,Mountain Loop Hwy & Alvord St,,48.251797190322456,-121.60101262043067,,,0,,0,
927,,Mountain Loop Hwy & Seeman St,,48.254880189587716,-121.60158823262199,,,0,,0,
929,,Stanwood I P&R - Bay 2,,48.23839559152383,-122.24355254636167,,,0,,0,
930,,N Olympic Ave & E 2nd St,,48.19384495651363,-122.12633606010574,,,0,,0,
934,,Olympic View Dr & 170th Pl SW,,47.84463593592133,-122.31937775170914,,,0,,0,
940,,Olympic View Dr & 172nd St SW,,47.843081988758705,-122.32163850571987,,,0,,0,
942,,Puget Park Dr & 137th St SE,,47.87378698384161,-122.15414767808512,,,0,,0,
950,,Shoultes Rd & 100th St NE,,48.08627766795067,-122.1709549754874,,,0,,0,
951,,Shoultes Rd & 103rd Pl NE,,48.088917392298505,-122.1667633822352,,,0,,0,
953,,Smokey Point Blvd & 177th Pl NE,,48.15765765542738,-122.1828490008211,,,0,,0,
954,,Smokey Point Blvd & 152nd St NE,,48.13450873354009,-122.18310264728314,,,0,,0,
955,,Smokey Point Blvd & 168th St NE,,48.14895511010868,-122.18286675564099,,,0,,0,
958,,Smokey Point Blvd & 183rd Pl NE,,48.163157700264826,-122.18284154817493,,,0,,0,
959,,Smokey Point Blvd & 156th St NE,,48.13837054838887,-122.18298265590049,,,0,,0,
960,,Smokey Point Blvd & 165th Pl NE,,48.145725108071176,-122.18288453096736,,,0,,0,
963,,Hwy 525 & 80th St SW,,47.92597094603865,-122.30020745544738,,,0,,0,
964,,Hwy 525 & 84th St SW,,47.9227122387838,-122.30009463784164,,,0,,0,
965,,Hwy 525 & 92nd St SW,,47.915344784560624,-122.29751601205929,,,0,,0,
966,,Hwy 525 & Beverly Park Rd,,47.88329645209919,-122.28032518813345,,,0,,0,
967,,Hwy 525 & Clover Ln,,47.93352929603127,-122.30627685540648,,,0,,0,
968,,Hwy 525 & Goat Trail Rd,,47.93984591993788,-122.30569780660046,,,0,,0,
969,,Hwy 525 & Harbour Pointe Blvd SW,,47.89035859639814,-122.28517008821292,,,0,,0,
970,,Hwy 525 & Lincoln Wy,,47.873969926361895,-122.27629882625523,,,0,,0,
972,,Hwy 525 & 15th Pl,,47.9366198792662,-122.30603030386075,,,0,,0,
973,,Hwy 525 & 76th St SW,,47.928926127578265,-122.30111131150268,,,0,,0,
974,,Hwy 525 & Chennault Beach Rd,,47.89945036650421,-122.291459780672,,,0,,0,
975,,Hwy 525 & Harbour Pointe Blvd,,47.90549282164174,-122.29302471879562,,,0,,0,
977,,Hwy 527 & 180th St SE,,47.835007971453734,-122.21089960587182,,,0,,0,
979,,Hwy 527 & 186th Pl SE,,47.82858213479231,-122.20898197846759,,,0,,0,
980,,Hwy 527 & Reder Wy,,47.76274854343768,-122.20743161148754,,,0,,0,
981,,Hwy 527 & 189th Pl SE,,47.82634414926433,-122.20812046035319,,,0,,0,
982,,Hwy 527 & 192nd St SE,,47.82417385031208,-122.20733002570299,,,0,,0,
983,,Hwy 527 & 196th St SE,,47.820537787435,-122.20735575876013,,,0,,0,
984,,Hwy 527 & 208th St SE,,47.80992528007583,-122.20746926685942,,,0,,0,
985,,Hwy 527 & 214th St SE,,47.80443715745962,-122.20828428509252,,,0,,0,
986,,Hwy 527 & 220th St SE,,47.79900921553171,-122.21161158248947,,,0,,0,
987,,Hwy 527 & Mill Creek Rd,,47.84982986756894,-122.21754656639045,,,0,,0,
988,,Hwy 527 & Seattle Hill Rd,,47.844712630804686,-122.21580503973048,,,0,,0,
989,,Hwy 527 & 228th St SE,,47.79068907545379,-122.21715186569168,,,0,,0,
990,,Hwy 527 & 201st Pl SE,,47.814932934729974,-122.20739035489277,,,0,,0,
991,,Hwy 527 & 240th St SE,,47.7805989113196,-122.2196326265007,,,0,,0,
992,,Hwy 527 & 234th St SE,,47.783284421144586,-122.22021294096574,,,0,,0,
997,,Hwy 99 & 60th Ave W,,47.82514631943121,-122.31153472104226,,,0,,0,
998,,Hwy 99 & 40th Ave W,,47.86009299958559,-122.28561311158504,,,0,,0,
